category,type,lon,lat,name,suburb
Organized Sports,Archery,146.95410312,-36.13334638,Prince of Wales Park,BANDIANA
Organized Sports,Archery,142.53165098,-36.09761902,Hays Paddock,BANGERANG
Organized Sports,Archery,145.13351216,-38.02538389,Donald Recreation Reserve,BANGHOLME
Organized Sports,Archery,147.67862061,-37.95193951,Deledeo Recreation Reserve,BANKSIA PENINSULA
Organized Sports,Archery,142.72883804,-34.80457898,Baxter Park,BANNERTON
Organized Sports,Archery,144.09609196,-38.06478798,Abe Wood Reserve,BANNOCKBURN
Organized Sports,Archery,142.79347404,-35.56255997,HEYWOOD SPORTS PARK,BANYAN
Organized Sports,Archery,142.86728401,-36.63148501,Highett Reserve,BANYENA
Organized Sports,Archery,146.92729932,-36.16536649,Toners Lane Reserve,BARANDUDA
Organized Sports,Archery,144.54131756,-37.11481146,Bulleen Park ,BARFOLD
Organized Sports,Archery,143.97509008,-37.02957536,Pennell Reserve,BARINGHUP
Organized Sports,Archery,143.8973841,-36.92735241,Chewton Bowmen Inc,BARINGHUP WEST
Organized Sports,Archery,145.94748803,-36.93962096,Diamond Valley Archers,BARJARG
Organized Sports,Archery,144.26813898,-37.04662695,Meeniyan Recreation reserve,BARKERS CREEK
Organized Sports,Archery,143.17227898,-36.95758903,South West Target Shooting Complex,BARKLY
Organized Sports,Archery,144.08312985,-37.45329903,RHL Sparks Reserve,BARKSTEAD
Organized Sports,Archery,145.03199104,-35.98520898,Laurie Emmins Reserve,BARMAH
Organized Sports,Archery,144.53101552,-36.67268427,Sherbrooke Archers,BARNADOWN
Organized Sports,Lawn Bowls,140.97123588,-37.22888953,Bright Bowls Club,DORODONG
Organized Sports,Lawn Bowls,141.65753805,-36.95572831,Dederang Bowls Club,DOUGLAS
Organized Sports,Lawn Bowls,143.44903799,-38.18867398,Myrtleford Bowls Club,DREEITE
Organized Sports,Lawn Bowls,146.3321385,-38.30637029,Tawonga Bowls Club,DRIFFIELD
Organized Sports,Lawn Bowls,144.9719506,-38.32799608,Aradale Bowls Club,DROMANA
Organized Sports,Lawn Bowls,145.88403304,-38.141815,Ararat Bowls,DROUIN
Organized Sports,Lawn Bowls,145.85016298,-38.224495,Ararat VRI Bowls Club,DROUIN SOUTH
Organized Sports,Lawn Bowls,145.50428997,-36.15994403,Chalambar Bowls & Golf Club,DRUMANURE
Organized Sports,Lawn Bowls,144.35180096,-38.12760096,Lake Bolac & District Bowling Club,DRUMCONDRA
Organized Sports,Lawn Bowls,144.31993882,-37.27060981,Willaura Bowls Club,DRUMMOND
Organized Sports,Lawn Bowls,142.26718996,-36.69102201,Ballarat Bowling Club,DRUNG
Organized Sports,Lawn Bowls,144.55310568,-38.1692143,Ballarat East Bowling Club,DRYSDALE
Organized Sports,Lawn Bowls,146.13639243,-38.50684497,Ballarat Memorial Bowling Club,DUMBALK
Organized Sports,Lawn Bowls,143.30740101,-35.91963901,Ballarat North Bowling Club,DUMOSA
Organized Sports,Lawn Bowls,142.92287999,-37.97885997,Buninyong Bowling Club,DUNDONNELL
Organized Sports,Lawn Bowls,143.60447701,-36.94706598,Central Wendouree Bowling Club,DUNLUCE
Organized Sports,Lawn Bowls,143.98223905,-37.61598698,City Bowling Club,DUNNSTOWN
Organized Sports,Lawn Bowls,141.32986302,-37.510251,City Oval Bowling Club,DUNROBIN
Organized Sports,Lawn Bowls,143.85697095,-37.713335,Invermay Bowling Club,DURHAM LEAD
Organized Sports,Lawn Bowls,147.29718603,-38.14514599,Learmonth Bowling Club,DUTSON
Organized Sports,Lawn Bowls,141.63654056,-38.29052793,Midlands Golf Course,DUTTON WAY
Organized Sports,Lawn Bowls,147.68343497,-37.87821002,Mount Xavier Golf Course,EAGLE POINT
Organized Sports,Lawn Bowls,144.24675501,-36.70514597,Sebastopol Bowling Club,EAGLEHAWK NORTH
Organized Sports,Lawn Bowls,145.63161501,-36.52066555,Victoria Bowling Club,EARLSTON
Organized Sports,Lawn Bowls,144.32507301,-36.75438997,Webbcona Bowling Club,EAST BENDIGO
Organized Sports,Lawn Bowls,144.971363,-37.80772797,City of Heidleberg Bowling Club ,EAST MELBOURNE
Organized Sports,Lawn Bowls,146.41761401,-36.36683701,De Winton Park,EAST WANGARATTA
Organized Sports,Lawn Bowls,144.02985401,-38.48691596,Heidelberg Golf Club,EASTERN VIEW
Organized Sports,Lawn Bowls,147.64331675,-37.81951213,John Street Reserve,EASTWOOD
Organized Sports,Lawn Bowls,144.83198397,-36.24860604,Petrie Park,ECHUCA
Organized Sports,Lawn Bowls,144.62965998,-36.12957098,Corinella Tennis and Bowls Club,ECHUCA WEST
Organized Sports,Lawn Bowls,143.82037456,-36.87718698,Inverloch Bowling Club,EDDINGTON
Organized Sports,Lawn Bowls,141.45990998,-37.00007299,Phillip Island Bowling Club,EDENHOPE
Organized Sports,Lawn Bowls,146.45063901,-36.660995,San Remo Recreation Reserve,EDI
Organized Sports,Lawn Bowls,145.10434679,-38.03490145,Wonthaggi Bowls Club,EDITHVALE
Organized Sports,Lawn Bowls,146.13126768,-37.45562843,Drouin Bowling Club,EILDON
Organized Sports,Lawn Bowls,146.53104804,-36.34502603,Longwarry Bowls Club Inc.,ELDORADO
Organized Sports,Lawn Bowls,142.96456299,-38.38270803,Neerim District Bowling Club,ELINGAMITE
Organized Sports,Lawn Bowls,145.36957319,-38.41265018,Thorpdale & District Bowling Club Inc,ELIZABETH ISLAND
Organized Sports,Lawn Bowls,142.636683,-38.06431303,Trafalgar Bowls Club Inc,ELLERSLIE
Organized Sports,Lawn Bowls,145.90577798,-38.27845301,Trafalgar Park Bowls Club,ELLINBANK
Organized Sports,Lawn Bowls,144.46937501,-36.50185502,Yarragon Bowling Club Inc,ELMORE
Organized Sports,Lawn Bowls,145.00474441,-37.89581685,Black Rock Bowling Club,ELSTERNWICK
Organized Sports,Lawn Bowls,145.14294088,-37.68677282,Brighton Beach Oval,ELTHAM NORTH
Organized Sports,Lawn Bowls,145.38368396,-37.93809962,Brighton Bowls Club,EMERALD
Organized Sports,Lawn Bowls,144.37379396,-36.82600798,Dendy Park,EMU CREEK
Organized Sports,Lawn Bowls,143.72554097,-37.782336,Easternwick Park Recreation Oval,ENFIELD
Organized Sports,Lawn Bowls,146.13126768,-37.45562843,F L Yott Reserve,ENOCHS POINT
Organized Sports,Lawn Bowls,147.90929001,-37.33387496,Hampton Bowls Club,ENSAY NORTH
Organized Sports,Lawn Bowls,144.97321644,-37.6463267,Hampton R.S.L Bowling Club,EPPING
Organized Sports,Lawn Bowls,143.54979001,-37.45622598,Highett Bowls Club,ERCILDOUNE
Organized Sports,Lawn Bowls,148.67247297,-37.54502797,Royal Melbourne Golf Club,ERRINUNDRA
Organized Sports,Lawn Bowls,146.20109607,-36.08047399,Sandringham Bowls Club,ESMOND
Organized Sports,Lawn Bowls,144.90401199,-37.73458871,Benalla Bowls Club,ESSENDON FIELDS
Organized Sports,Lawn Bowls,144.87970705,-37.75284496,Moira Benalla Bowls Club,ESSENDON WEST
Organized Sports,Lawn Bowls,143.72305084,-38.12330631,Swanpool Bowling Club,EURACK
Organized Sports,Lawn Bowls,145.65128998,-36.74741903,Bendigo and District Family Equestrian Malone Park,EUROA
Organized Sports,Lawn Bowls,143.6935881,-37.28250093,Bendigo Bowling Club,EVANSFORD
Organized Sports,Lawn Bowls,146.49692938,-36.40981584,Bendigo East Bowling Club,EVERTON
Organized Sports,Lawn Bowls,144.52711081,-37.7082488,Bendigo Golf Bowling Club,EXFORD
Organized Sports,Lawn Bowls,145.90863982,-38.40427336,Bendigo VRI Bowling Club,FAIRBANK
Organized Sports,Lawn Bowls,144.09425333,-38.46858192,Eaglehawk Bowling Club,FAIRHAVEN
Organized Sports,Lawn Bowls,144.7267663,-36.29884372,Elmore Bowls Club,FAIRY DELL
Organized Sports,Lawn Bowls,144.29906198,-37.08103901,Heathcote Bowling Club,FARADAY
Organized Sports,Lawn Bowls,144.97870204,-37.71924973,Kangaroo Flat Bowling Club,FAWKNER
Organized Sports,Lawn Bowls,143.50309501,-38.65276099,Lockwood South Bowling Club,FERGUSON
Organized Sports,Lawn Bowls,147.27018821,-37.83809017,Marong Bowling Club,FERNBANK
Organized Sports,Lawn Bowls,143.88503818,-36.27824919,North Bendigo Bowling Club,FERNIHURST
Organized Sports,Lawn Bowls,145.30623655,-37.86901754,Strathfieldsaye Bowling Club,FERNTREE GULLY
Organized Sports,Lawn Bowls,144.62951681,-37.75383633,White Hills Bowls Club,FIELDSTONE
Organized Sports,Lawn Bowls,144.83001413,-38.41125071,Woodbury Bowling Club,FINGAL
Organized Sports,Lawn Bowls,143.78784906,-35.46459735,Ashburton Bowls Club,FISH POINT
Organized Sports,Lawn Bowls,144.98255291,-37.80892162,Auburn Bowls Club,FITZROY
Organized Sports,Lawn Bowls,147.47660004,-37.73096698,Burwood District Bowls Club,FLAGGY CREEK
Organized Sports,Lawn Bowls,147.3086463,-38.28595916,Camberwell Central Bowls Club,FLAMINGO BEACH
Organized Sports,Lawn Bowls,144.91337304,-38.48996923,Hawthorn Bowling Club,FLINDERS
Organized Sports,Lawn Bowls,145.2236499,-37.29423787,Kew Heights Sports Club,FLOWERDALE
Organized Sports,Lawn Bowls,146.62641191,-38.27422519,Melbourne Cricket Club Bowls Club,FLYNNS CREEK
Organized Sports,Lawn Bowls,144.85583907,-37.28551039,North Balwyn Bowls Club,FORBES
Organized Sports,Lawn Bowls,147.65209871,-37.98302354,Point Lonsdale Bowls Club,FORGE CREEK
Organized Sports,Lawn Bowls,146.11973238,-38.65562585,Deer Park Bowling Club,FOSTER
Organized Sports,Lawn Bowls,144.53101552,-36.67268427,Keilor Bowls Club,FOSTERVILLE
Organized Sports,Lawn Bowls,142.691733,-38.22064467,Kevin Wheelan Gardens,FRAMLINGHAM
Organized Sports,Lawn Bowls,144.06325397,-37.27142199,St Albans Bowls Club,FRANKLINFORD
Organized Sports,Lawn Bowls,145.17315399,-38.139495,Sunshine City Bowls Club,FRANKSTON NORTH
Organized Sports,Lawn Bowls,144.72913171,-37.72120094,Berriwillock Bowls Club,FRASER RISE
Organized Sports,Lawn Bowls,145.34460518,-38.41702902,Birchip Bowls Club,FRENCH ISLAND
Organized Sports,Lawn Bowls,144.20018842,-38.25933063,Charlton Bowling Club,FRESHWATER CREEK
Organized Sports,Lawn Bowls,147.01924793,-38.09791389,Culgoa Bowling Club,FULHAM
Organized Sports,Lawn Bowls,146.06825398,-37.92858504,Donald Bowling Club,FUMINA SOUTH
Organized Sports,Lawn Bowls,144.26237553,-38.14126927,Donald Golf Bowls Club,FYANSFORD
Organized Sports,Lawn Bowls,145.95980724,-38.22716205,Sea Lake Golf Bowls Club,GAINSBOROUGH
Organized Sports,Lawn Bowls,146.68613839,-36.54675385,City Of Echuca Bowls Club,GAPSTED
Organized Sports,Lawn Bowls,145.64062474,-38.13280139,Colbinabbin Bowls Club,GARFIELD
Organized Sports,Lawn Bowls,143.89299767,-37.72063937,Gunbower Bowls Club,GARIBALDI
Organized Sports,Lawn Bowls,146.90681449,-36.10715574,Kyabram Valley View Golf Club,GATEWAY ISLAND
Organized Sports,Lawn Bowls,142.13386066,-37.95651296,Lockington Bowls Club,GAZETTE
Organized Sports,Lawn Bowls,144.33831405,-38.13066099,Rochester Bowls Club,GEELONG WEST
Organized Sports,Lawn Bowls,143.55795604,-38.47751603,Rushworth Bowls Club,GELLIBRAND
Organized Sports,Lawn Bowls,146.61158997,-38.61006899,Stanhope Bowls Club,GELLIONDALE
Organized Sports,Lawn Bowls,149.36405191,-37.40813441,Tongala Bowls Club,GENOA
Organized Sports,Lawn Bowls,147.29505502,-36.14378003,Cockatoo Bowls & Tennis Club,GEORGES CREEK
Organized Sports,Lawn Bowls,141.95620695,-36.456728,Garfield Recreation Reserve,GERANG GERUNG
Organized Sports,Lawn Bowls,142.78561899,-36.97014998,Koo Wee Rup Bowls & Tennis Club,GERMANIA
Organized Sports,Lawn Bowls,142.27116236,-37.99204877,Lang Lang Bowls Club,GERRIGERRUP
Organized Sports,Lawn Bowls,144.2610686,-38.06662418,Pakenham Bowls & Tennis Club,GHERINGHAP
Organized Sports,Lawn Bowls,147.09074218,-38.45661807,Blue Hills Bowling Club,GIFFARD
Organized Sports,Lawn Bowls,143.074767,-36.30185801,Cranbourne Bowling Club,GIL GIL
Organized Sports,Lawn Bowls,145.22280903,-36.32836699,Cranbourne Golf Club,GILLIESTON
Organized Sports,Lawn Bowls,149.69007582,-37.46737833,Cranbourne RSL Bowls Club,GIPSY POINT
Organized Sports,Lawn Bowls,145.06838598,-36.4846141,Edwin Flack Recreation Reserve,GIRGARRE EAST
Organized Sports,Lawn Bowls,144.58871863,-37.54612284,Hampton Park Bowls Club,GISBORNE SOUTH
Organized Sports,Lawn Bowls,144.88206004,-37.69040404,Max Pawsey Recreation Reserve,GLADSTONE PARK
Organized Sports,Lawn Bowls,145.6271921,-38.47215903,Carisbrook Recreation Reserve,GLEN ALVIE
Organized Sports,Lawn Bowls,145.50393003,-38.42934404,Dunolly Bowling Club,GLEN FORBES
Organized Sports,Lawn Bowls,145.06359046,-37.86706886,Maryborough Golf Club,GLEN IRIS
Organized Sports,Lawn Bowls,147.63174046,-36.82656281,Maryborough Highland Society,GLEN VALLEY
Organized Sports,Lawn Bowls,147.46281694,-36.81004976,Talbot Bowls Club,GLEN WILLS
Organized Sports,Lawn Bowls,147.27423459,-37.77382599,Apollo Bay Bowls Club,GLENALADALE
Organized Sports,Lawn Bowls,144.98995096,-37.20109897,Birregurra Bowls Club,GLENAROUA
Organized Sports,Lawn Bowls,145.41727298,-37.48832399,Central Reserve,GLENBURN
Organized Sports,Lawn Bowls,143.85904475,-37.34731425,Colac Bowls Club,GLENDONALD
Organized Sports,Lawn Bowls,142.96064937,-38.4454628,Colac Central Bowls Club,GLENFYNE
Organized Sports,Lawn Bowls,146.50639186,-38.0813327,Camperdown Bowls Club,GLENGARRY NORTH
Organized Sports,Lawn Bowls,143.90777203,-37.24810798,Camperdown Recreation Reserve,GLENGOWER
Organized Sports,Lawn Bowls,144.71536284,-37.10033684,Cobden Bowls Club,GLENHOPE EAST
Organized Sports,Lawn Bowls,141.89570952,-36.3026528,Lismore Bowls Club,GLENLEE
Organized Sports,Lawn Bowls,143.23656769,-37.21861438,Simpson Bowls Club,GLENLOGIE
Organized Sports,Lawn Bowls,143.43628501,-36.044745,Skipton Golf Club,GLENLOTH EAST
Organized Sports,Lawn Bowls,144.20944201,-37.30966799,Terang Golf Club,GLENLYON
Organized Sports,Lawn Bowls,144.28465599,-37.681139,Timboon Bowls Club,GLENMORE
Organized Sports,Lawn Bowls,142.999618,-38.17571498,Burden Park,GLENORMISTON NORTH
Organized Sports,Lawn Bowls,143.37392788,-37.13643928,Dandenong Bowls Club,GLENPATRICK
Organized Sports,Lawn Bowls,146.13982603,-36.48055697,Dandenong Recreation Club,GLENROWAN WEST
Organized Sports,Lawn Bowls,142.567215,-37.59620796,Keysborough Reserve,GLENTHOMPSON
Organized Sports,Lawn Bowls,144.09893886,-38.11717165,Noble Park Reserve,GNARWARRE
Organized Sports,Lawn Bowls,144.87491297,-36.63436899,Willow Lodge Bowls Club,GOBARUP
Organized Sports,Lawn Bowls,147.3340391,-38.26526202,Darebin City Bowls Club,GOLDEN BEACH
Organized Sports,Lawn Bowls,143.76022329,-37.0997296,Fairfield Bowling Club,GOLDEN POINT
Organized Sports,Lawn Bowls,144.81235242,-37.21392594,John Cain Memorial Park,GOLDIE
Organized Sports,Lawn Bowls,143.93666515,-37.53833563,Kingsbury Bowls Club,GONG GONG
Organized Sports,Lawn Bowls,145.89947497,-36.52081698,Preston - Reservoir Bowls Club,GOOMALIBEE
Organized Sports,Lawn Bowls,148.87479996,-37.39379703,Thornbury Bowls Club,GOONGERAH
Organized Sports,Lawn Bowls,146.62092719,-35.99376681,Bairnsdale Golf Club,GOORAMADDA
Organized Sports,Lawn Bowls,144.50411098,-36.66641797,Bruthen Bowling Club,GOORNONG
Organized Sports,Lawn Bowls,141.6131538,-38.25123287,Howitt Park Bowls Club,GORAE
Organized Sports,Lawn Bowls,144.14365604,-37.56665002,Lakes Entrance Bowls Club,GORDON
Organized Sports,Lawn Bowls,141.42703598,-36.793564,Lindenow Bowling Club,GOROKE
Organized Sports,Lawn Bowls,146.043654,-37.16801501,Mallacoota Golf Club,GOUGHS BAY
Organized Sports,Lawn Bowls,144.90702063,-37.6938491,Metung Bowls club,GOWANBRAE
Organized Sports,Lawn Bowls,145.73187009,-36.49903643,Orbost Lawn Bowls,GOWANGARDIE
Organized Sports,Lawn Bowls,144.11942002,-36.99101097,Paynesville Bowling Club,GOWER
Organized Sports,Lawn Bowls,142.20880426,-37.29111845,Baxter Village Bowls Club ,GRAMPIANS
Organized Sports,Lawn Bowls,144.65766007,-37.70007035,Carrum Bowling Club ,GRANGEFIELDS
Organized Sports,Lawn Bowls,147.70490576,-37.72512383,Frankston Bowling Club,GRANITE ROCK
Organized Sports,Lawn Bowls,147.29505502,-36.14378003,Frankston RSL Bowling Club ,GRANYA
Organized Sports,Lawn Bowls,141.65119397,-37.89142598,Karingal Bowling Club ,GRASSDALE
Organized Sports,Lawn Bowls,142.86771503,-36.59778696,Long Island Country Club ,GRAYS BRIDGE
Organized Sports,Lawn Bowls,143.06565699,-36.71876103,Peninsula Country Golf Club,GRE GRE
Organized Sports,Lawn Bowls,143.03199098,-36.64942497,Seaford Bowls Club ,GRE GRE SOUTH
Organized Sports,Lawn Bowls,143.66884497,-35.93479227,Yamala Park,GREDGWIN
Organized Sports,Lawn Bowls,144.31086003,-37.51779698,Cohuna Bowls Club,GREENDALE
Organized Sports,Lawn Bowls,142.87996302,-36.968804,Cohuna Golf & Bowls Club,GREENS CREEK
Organized Sports,Lawn Bowls,144.83391798,-37.64398804,Kerang Bowling Club,GREENVALE
Organized Sports,Lawn Bowls,143.95689897,-37.72780299,Kerang Golf and Bowls Club,GRENVILLE
Organized Sports,Lawn Bowls,146.31872598,-36.67524403,Leitchville Bowls Club,GRETA SOUTH
Organized Sports,Lawn Bowls,143.83995335,-38.68266242,Quambatook Bowling Club,GREY RIVER
Organized Sports,Lawn Bowls,141.84037096,-37.59509596,Barwon Heads Village Park,GRITJURK
Organized Sports,Lawn Bowls,145.50935502,-37.75353004,Clifton Springs Bowling Club,GRUYERE
Organized Sports,Lawn Bowls,144.27780452,-35.99623761,Geelong Lawn Tennis Club,GUNBOWER
Organized Sports,Lawn Bowls,146.25340704,-38.52280002,Geelong RSL Club,GUNYAH
Organized Sports,Lawn Bowls,145.38534946,-38.01332866,Geelong West Bowls Club,GUYS HILL
Organized Sports,Lawn Bowls,143.65529489,-37.60975569,Highton Reserve,HADDON
Organized Sports,Lawn Bowls,145.25199323,-38.0036518,Lara Bowling Club,HALLAM
Organized Sports,Lawn Bowls,142.57784315,-37.19834874,Leopold Sportsmans Club,HALLS GAP
Organized Sports,Lawn Bowls,141.93090197,-37.78506603,Myers Reserve,HAMILTON
Organized Sports,Lawn Bowls,144.99286197,-37.94218738,Norlane Bowling Club,HAMPTON
Organized Sports,Lawn Bowls,145.27976695,-38.06758236,Ocean Grove Bowling Club,HAMPTON PARK
Organized Sports,Lawn Bowls,142.75029096,-34.68125702,Portarlington Bowls Club,HAPPY VALLEY
Organized Sports,Lawn Bowls,144.22313231,-36.9672355,St Leonards Bowling Club,HARCOURT NORTH
Organized Sports,Lawn Bowls,144.51945269,-37.63526179,Alma Bowls &Tennis Club,HARKNESS
Organized Sports,Lawn Bowls,147.12244198,-36.86099498,Armadale Bowls Club/Tennis Courts,HARRIETVILLE
Organized Sports,Lawn Bowls,145.08658223,-36.49899639,Bentleigh Bowling Club,HARSTON
Organized Sports,Lawn Bowls,142.04406108,-34.68936047,Coatesville Bowling Club,HATTAH
Organized Sports,Lawn Bowls,142.21407598,-36.74082898,Elsternwick Bowls Club,HAVEN
Organized Sports,Lawn Bowls,142.12251813,-38.13772038,Glen Eira McKinnon Bowls Club,HAWKESDALE
Organized Sports,Lawn Bowls,145.02461782,-37.83449918,Murrumbeena Bowls Club,HAWTHORN
Organized Sports,Lawn Bowls,146.37494804,-38.655634,Murrumbeena Park Bowls Club,HAZEL PARK
Organized Sports,Lawn Bowls,146.50603304,-38.31564801,South Oakleigh Club,HAZELWOOD NORTH
Organized Sports,Lawn Bowls,145.60589747,-37.71881342,Southern Indoor Bowls Club,HEALESVILLE
Organized Sports,Lawn Bowls,144.74917558,-36.86647656,The Bentleigh Club,HEATHCOTE
Organized Sports,Lawn Bowls,144.69374133,-36.99362057,Casterton Bowls Club,HEATHCOTE SOUTH
Organized Sports,Lawn Bowls,141.66382986,-38.25686785,Dartmoor Bowls Club ,HEATHMERE
Organized Sports,Lawn Bowls,146.651025,-38.66320403,Portland Bowls Club,HEDLEY
Organized Sports,Lawn Bowls,145.05757832,-37.72941386,Portland Memorial Bowls Club,HEIDELBERG HEIGHTS
Organized Sports,Lawn Bowls,141.95153323,-37.65955734,Bannockburn & District Bowls Club,HENSLEY PARK
Organized Sports,Lawn Bowls,144.12096934,-37.29926319,Inverleigh Bowls Club,HEPBURN
Organized Sports,Lawn Bowls,144.31730327,-38.12800431,Linton & District Bowling Club,HERNE HILL
Organized Sports,Lawn Bowls,144.63357504,-37.37694815,Clunes Bowling Club,HESKET
Organized Sports,Lawn Bowls,142.57317528,-38.05180767,Creswick Bowling Club,HEXHAM
Organized Sports,Lawn Bowls,142.897392,-38.55456004,Daylesford Bowling Club,HEYTESBURY LOWER
Organized Sports,Lawn Bowls,146.76965996,-38.30256596,Smeaton Bowling club,HIAMDALE
Organized Sports,Lawn Bowls,144.93083106,-37.20933339,Trentham Bowling Club,HIGH CAMP
Organized Sports,Lawn Bowls,145.4277043,-37.00602733,Dimboola Bowls Club,HIGHLANDS
Organized Sports,Lawn Bowls,141.58551914,-37.62413356,Jeparit & District Bowls Club,HILGAY
Organized Sports,Lawn Bowls,143.65644106,-37.60354794,Nhill Bowls Club,HILLCREST
Organized Sports,Lawn Bowls,144.75627048,-37.70616763,Rainbow Bowls Club,HILLSIDE
Organized Sports,Lawn Bowls,145.19239581,-38.40086871,Altona Bowling Club (Altona Reserve),HMAS CERBERUS
Organized Sports,Lawn Bowls,147.45535396,-38.06259798,Altona North Bowling Club,HOLLANDS LANDING
Organized Sports,Lawn Bowls,141.86954703,-38.10895399,Altona Sports Bowls Club,HOMERTON
Organized Sports,Lawn Bowls,142.6010268,-35.74907007,Laverton Bowling Club,HOPETOUN
Organized Sports,Lawn Bowls,144.6651242,-37.87168417,Newport Bowling Club,HOPPERS CROSSING
Organized Sports,Lawn Bowls,144.22591797,-35.85998903,Spotswood/Kingsville RSL Bowling Club,HORFIELD
Organized Sports,Lawn Bowls,147.12244198,-36.86099498,Williamstown Bowling Club,HOTHAM HEIGHTS
Organized Sports,Lawn Bowls,145.93729503,-37.11736602,Coughlin Park,HOWES CREEK
Organized Sports,Lawn Bowls,146.23231098,-37.23905899,Horsham Golf Club,HOWQUA
Organized Sports,Lawn Bowls,146.11800398,-37.229261,Horsham West Bowling Club,HOWQUA INLET
Organized Sports,Lawn Bowls,145.20561524,-37.53932644,Natimuk Bowling Club,HUMEVALE
Organized Sports,Lawn Bowls,146.84726738,-38.66550568,Sunnyside Bowls Club,HUNTERSTON
Organized Sports,Lawn Bowls,144.35646302,-36.677607,Broadmeadows Bowls Club,HUNTLY
Organized Sports,Lawn Bowls,147.11203297,-36.27394102,Craigieburn Bowls Club,HUON
Organized Sports,Lawn Bowls,145.16879897,-37.63113501,Gladstone Park Bowls Club,HURSTBRIDGE
Organized Sports,Lawn Bowls,147.35675136,-37.65735622,Sunbury Bowling Club,IGUANA CREEK
Organized Sports,Lawn Bowls,142.67913401,-37.08493602,Chiltern recreation reserve,ILLAWARRA
Organized Sports,Lawn Bowls,144.71729882,-38.15026182,Rutherglen Golf Course/ Bowls Club,INDENTED HEAD
Organized Sports,Lawn Bowls,143.77240095,-36.58993202,Tangambalanga recreation Reserve,INGLEWOOD
Organized Sports,Lawn Bowls,143.66582002,-36.79703097,Yackandandah Bowls Club,INKERMAN
Organized Sports,Lawn Bowls,144.09893886,-38.11717165,Chelsea Recreation Reserve,INVERLEIGH
Organized Sports,Lawn Bowls,143.87083504,-37.52924601,Cheltenham Bowls Club,INVERMAY
Organized Sports,Lawn Bowls,145.649905,-38.15214696,Clayton Bowls Club,IONA
Organized Sports,Lawn Bowls,144.22464802,-37.13882699,Edithvale Bowls Club,IRISHTOWN
Organized Sports,Lawn Bowls,143.61579506,-38.27196417,Mentone Bowling Club ,IRREWARRA
Organized Sports,Lawn Bowls,143.50296802,-38.47101198,Moorabbin Bowling Club ,IRREWILLIPE EAST
Organized Sports,Lawn Bowls,145.04019671,-37.78422187,Mordialloc Bowls Club,IVANHOE
Organized Sports,Lawn Bowls,144.90327899,-37.681026,Parkdale Bowls Club,JACANA
Organized Sports,Lawn Bowls,144.27959799,-36.72569703,Balmoral Gardens Bowls Club,JACKASS FLAT
Organized Sports,Lawn Bowls,145.55063114,-38.36384697,Bayswater Bowls Club,JAM JERRUP
Organized Sports,Lawn Bowls,144.29244875,-38.35955061,Boronia Bowls Club,JAN JUC
Organized Sports,Lawn Bowls,143.08019196,-38.40126299,Ferntree Gully Bowling Club,JANCOURT EAST
Organized Sports,Lawn Bowls,148.42291107,-37.72179523,Guy Turner Reserve,JARRAHMOND
Organized Sports,Lawn Bowls,146.44760542,-38.34056577,Waverley Golf Club,JEERALANG
Organized Sports,Lawn Bowls,145.75742903,-38.38809699,Boolarra Bowls Club,JEETHO
Organized Sports,Lawn Bowls,143.15049125,-36.26793398,Keegan St Reserve,JEFFCOTT NORTH
Organized Sports,Lawn Bowls,146.13554842,-37.70207779,Moe Bowling Club,JERICHO
Organized Sports,Lawn Bowls,143.05202604,-35.80743098,Yallourn Bowling Club,JIL JIL
Organized Sports,Lawn Bowls,145.91304503,-38.07074896,Yallourn North Bowls Club,JINDIVICK
Organized Sports,Lawn Bowls,142.93160999,-37.04194001,Yinnar Bowls Club,JOEL SOUTH
Organized Sports,Lawn Bowls,147.79384901,-37.858485,Boort Bowling Club,JOHNSONVILLE
Organized Sports,Lawn Bowls,146.42462497,-38.42589,Bridgewater Lawn Bowls Club,JUMBUK
Organized Sports,Lawn Bowls,145.29124702,-38.12915303,Calivil Bowls Club,JUNCTION VILLAGE
Organized Sports,Lawn Bowls,144.25995898,-36.04706997,Dingee Bowling Club,JUNGABURRA
Organized Sports,Lawn Bowls,145.23184079,-36.16648974,Inglewood Bowls Club,KAARIMBA
Organized Sports,Lawn Bowls,147.96496174,-37.88244868,Korong Vale Bowls Club,KALIMNA
Organized Sports,Lawn Bowls,144.95996807,-37.54165929,Pyramid Hill Bowling Club,KALKALLO
Organized Sports,Lawn Bowls,145.37086999,-37.90675297,Serpentine Bowls and Tennis Complex,KALLISTA
Organized Sports,Lawn Bowls,143.23200205,-35.91107696,Wedderburn Bowls Club,KALPIENUNG
Organized Sports,Lawn Bowls,144.30648897,-36.37086597,Gisborne & District Bowling Club,KAMAROOKA NORTH
Organized Sports,Lawn Bowls,146.97171799,-36.521798,Kyneton Bowling Club,KANCOONA
Organized Sports,Lawn Bowls,145.23645261,-37.71988444,Lancefield Bowling Club,KANGAROO GROUND
Organized Sports,Lawn Bowls,145.64904398,-37.04587001,Macedon Ranges Bowling Club,KANUMBRA
Organized Sports,Lawn Bowls,144.93198501,-36.17246003,Romsey Bowls Club,KANYAPELLA
Organized Sports,Lawn Bowls,145.90671698,-38.41367603,Woodend Bowling Club,KARDELLA
Organized Sports,Lawn Bowls,143.23101291,-38.19078654,Doncaster Bowling Club ,KARIAH
Organized Sports,Lawn Bowls,145.53157198,-36.50874604,Mullum Mullum Reserve ,KARRAMOMUS
Organized Sports,Lawn Bowls,145.63165697,-36.09907598,Templestowe Bowls Club,KATAMATITE
Organized Sports,Lawn Bowls,145.63146384,-36.29902536,Yarra Valley Country Club,KATANDRA
Organized Sports,Lawn Bowls,145.53155704,-36.04063404,Mansfield Bowls Club,KATUNGA
Organized Sports,Lawn Bowls,144.81525497,-37.72968021,Footscray Park Bowling Club,KEALBA
Organized Sports,Lawn Bowls,144.84034474,-37.72061876,McIvor Reserve,KEILOR
Organized Sports,Lawn Bowls,144.872339,-37.72994899,Rosamond Bowling Club,KEILOR EAST
Organized Sports,Lawn Bowls,144.807422,-37.69898096,Sunshine VRI Bowling Club,KEILOR NORTH
Organized Sports,Lawn Bowls,142.326966,-36.40496104,Yarraville Footscray Bowling Club,KELLALAC
Organized Sports,Lawn Bowls,143.3220072,-34.890114,Croydon Bowling Club,KENLEY
Organized Sports,Lawn Bowls,143.23906696,-38.56191099,Eastwood Golf Bowls Club,KENNEDYS CREEK
Organized Sports,Lawn Bowls,144.30529899,-36.75884201,Heathmont Bowls Club,KENNINGTON
Organized Sports,Lawn Bowls,143.94895397,-35.78962173,Ringwood Bowls Club,KERANG
Organized Sports,Lawn Bowls,146.98884544,-36.39792987,Diggers Rest Bowling Club,KERGUNYAH
Organized Sports,Lawn Bowls,145.56909404,-38.43358198,Melton Bowling Club,KERNOT
Organized Sports,Lawn Bowls,145.23172118,-37.16753374,Mount Cottrell Bowls Club,KERRISDALE
Organized Sports,Lawn Bowls,145.04645001,-37.81583198,Irymple Bowls Club,KEW
Organized Sports,Lawn Bowls,142.46678198,-36.41215198,Merbein Bowls Club,KEWELL
Organized Sports,Lawn Bowls,145.37779378,-36.4569686,Mildura Bowls Club,KIALLA
Organized Sports,Lawn Bowls,145.36890303,-36.49896232,Murrayville Bowls Club,KIALLA WEST
Organized Sports,Lawn Bowls,147.04818303,-36.28533698,Nangiloc Recreation Reserve,KIEWA
Organized Sports,Lawn Bowls,146.95410312,-36.13334638,Ouyen Bowls Club,KILLARA
Organized Sports,Lawn Bowls,146.26033501,-36.19685901,Red Cliffs Bowls Club,KILLAWARRA
Organized Sports,Lawn Bowls,146.85984529,-38.11930509,Underbool Bowls Club,KILMANY
Organized Sports,Lawn Bowls,144.98774296,-37.24255004,Broadford Bowling Club,KILMORE EAST
Organized Sports,Lawn Bowls,145.31797377,-37.84391761,Kilmore Bowls Club,KILSYTH SOUTH
Organized Sports,Lawn Bowls,146.37865198,-36.70542764,Seymour Bowling Club,KING VALLEY
Organized Sports,Lawn Bowls,145.30251795,-37.43822674,Seymour VRI Bowling Club,KINGLAKE CENTRAL
Organized Sports,Lawn Bowls,143.77240095,-36.58993202,Wallan Bowling Club,KINGOWER
Organized Sports,Lawn Bowls,145.02571603,-37.71385402,Nathalia Bowls Club ,KINGSBURY
Organized Sports,Lawn Bowls,144.88542802,-37.80258897,Numurkah Bowls Club,KINGSVILLE
Organized Sports,Lawn Bowls,143.87303203,-36.37765396,Numurkah Country Club,KINYPANIAL
Organized Sports,Lawn Bowls,145.13170098,-36.70001101,Picola Recreation Reserve,KIRWANS BRIDGE
Organized Sports,Lawn Bowls,141.84772297,-38.01529403,St James Bowls & Tennis Club,KNEBSWORTH
Organized Sports,Lawn Bowls,144.53281896,-36.85146099,Strathmerton Recreation Reserve,KNOWSLEY
Organized Sports,Lawn Bowls,143.26076868,-38.31637605,Tungamah Lawn Bowls,KOALLAH
Organized Sports,Lawn Bowls,143.00307996,-38.10597756,Wunghnu Bowls Club,KOLORA
Organized Sports,Lawn Bowls,141.71878896,-37.49324354,Yarrawonga Bowls Club ,KONONGWOOTONG
Organized Sports,Lawn Bowls,145.54173703,-38.16500099,Glen Waverley Bowls Club,KOO WEE RUP NORTH
Organized Sports,Lawn Bowls,145.73197702,-36.52080498,Mount Waverley Bowls Club,KOONDA
Organized Sports,Lawn Bowls,145.57403001,-35.89903798,Mulgrave Tennis & Bowls Club,KOONOOMOO
Organized Sports,Lawn Bowls,143.33821196,-36.66529603,Oakleigh Bowls Club,KOOREH
Organized Sports,Lawn Bowls,146.53729102,-38.32324204,Percy Treyvuad Memorial Park,KOORNALLA
Organized Sports,Lawn Bowls,146.98192581,-37.70679288,Riversdale Golf Club,KOOROOL
Organized Sports,Lawn Bowls,145.0326858,-37.8373502,Scammell Reserve,KOOYONG
Organized Sports,Lawn Bowls,144.34847705,-37.55265598,Aberfeldie Bowls Club,KOROBEIT
Organized Sports,Lawn Bowls,143.70953299,-36.323806,Buckley Park Bowls Club,KORONG VALE
Organized Sports,Lawn Bowls,145.85583797,-38.45006298,Clifton Park Bowling Club,KORUMBURRA
Organized Sports,Lawn Bowls,144.20044004,-37.41145498,Doutta Galla Bowls Club,KORWEINGUBOORA
Organized Sports,Lawn Bowls,145.01138305,-36.155808,Essendon Bowls Club,KOTUPNA
Organized Sports,Lawn Bowls,145.63025736,-38.42500724,Maribyrnong Park Bowls Club,KROWERA
Organized Sports,Lawn Bowls,143.52771504,-35.457268,Moonee Ponds Bowls Club,KUNAT
Organized Sports,Lawn Bowls,143.54963297,-36.48059297,Moonee Valley Bowls Club,KURRACA WEST
Organized Sports,Lawn Bowls,144.57038398,-37.67292202,Strathmore Bowls Club,KURUNJANG
Organized Sports,Lawn Bowls,145.10368499,-36.398989,Avenue Bowling club,KYABRAM SOUTH
Organized Sports,Lawn Bowls,144.39569402,-37.28318102,Bacchus Marsh Bowling club,KYNETON SOUTH
Organized Sports,Lawn Bowls,143.88696397,-36.80533997,Ballan Bowls Club,LAANECOORIE
Organized Sports,Lawn Bowls,145.81636701,-38.078424,Brunswick Bowls Club,LABERTOUCHE
Organized Sports,Lawn Bowls,144.66495476,-36.79401182,Coburg Moreland Bowls Club ,LADYS PASS
Organized Sports,Lawn Bowls,142.87068899,-36.415503,Fawkner Bowling Club,LAEN EAST
Organized Sports,Lawn Bowls,142.31057099,-36.15411296,Glenroy Bowls Club,LAH
Organized Sports,Lawn Bowls,143.68307303,-35.46509104,West Coburg Bowling club,LAKE BOGA
Organized Sports,Lawn Bowls,148.03667004,-37.85322702,Balnarring Tennis & Bowls Club,LAKE BUNGA
Organized Sports,Lawn Bowls,141.78729503,-38.07785096,Carrington Park Bowls Club,LAKE CONDAH
Organized Sports,Lawn Bowls,144.53663,-36.96909702,Dromana Bowls Club,LAKE EPPALOCK
Organized Sports,Lawn Bowls,143.81233802,-37.54136503,Flinders Golf Course ,LAKE GARDENS
Organized Sports,Lawn Bowls,142.65091302,-36.997743,Hastings' Tennis & Bowls Club,LAKE LONSDALE
Organized Sports,Lawn Bowls,143.83557599,-35.85192197,Howard Parker Reserve ,LAKE MERAN
Organized Sports,Lawn Bowls,142.99799098,-34.77793104,Main Ridge Bowls Club,LAKE POWELL
Organized Sports,Lawn Bowls,148.15481011,-37.8381045,Mornington Bowls Club,LAKE TYERS
Organized Sports,Lawn Bowls,142.77824152,-35.27673938,Mount Martha Bowls & Tennis,LAKE TYRRELL
Organized Sports,Lawn Bowls,143.83903296,-37.55976502,Rosebud Bowls Club,LAKE WENDOUREE
Organized Sports,Lawn Bowls,148.03696315,-37.87191135,Rosebud Country Golf Course,LAKES ENTRANCE
Organized Sports,Lawn Bowls,143.41926903,-35.5725001,Rye Bowls Club,LALBERT
Organized Sports,Lawn Bowls,143.54490602,-37.13448503,Somerville Recreation Reserve ,LAMPLOUGH
Organized Sports,Lawn Bowls,145.63082961,-38.57267723,Sorrento Bowls Club,LANCE CREEK
Organized Sports,Lawn Bowls,143.17325203,-36.95144502,Village Glen Bowls Club,LANDSBOROUGH
Organized Sports,Lawn Bowls,145.51315647,-38.28756501,West Rosebud Bowling Club,LANG LANG
Organized Sports,Lawn Bowls,144.09057401,-37.40273301,Campbells Creek Bowling Club,LANGDONS HILL
Organized Sports,Lawn Bowls,142.89692763,-37.36091056,Harcourt Bowling Club,LANGI LOGAN
Organized Sports,Lawn Bowls,144.53155956,-37.14264311,Maldon Bowling Club,LANGLEY
Organized Sports,Lawn Bowls,145.16126801,-38.176899,Macarthar Tennis & Bowls Club,LANGWARRIN
Organized Sports,Lawn Bowls,144.351415,-38.014717,Mortlake Bowls Club,LARA
Organized Sports,Lawn Bowls,143.55085,-38.39355502,Port Fairy Bowls Club,LARPENT
Organized Sports,Lawn Bowls,142.63313303,-35.47556898,Alexandra Bowling Club,LASCELLES
Organized Sports,Lawn Bowls,144.36417796,-37.21703303,Eildon Bowls Club,LAURISTON
Organized Sports,Lawn Bowls,144.7525294,-37.85452006,Marysville Bowls Club Inc,LAVERTON
Organized Sports,Lawn Bowls,142.73155594,-36.324902,Yea Bowls Club,LAWLER
Organized Sports,Lawn Bowls,143.88041801,-37.33512599,Diamond Creek Bowling Club,LAWRENCE
Organized Sports,Lawn Bowls,143.75429996,-37.45477801,Eltham Bowling Club,LEARMONTH
Organized Sports,Lawn Bowls,144.02627197,-36.715,Hurstbridge Bowling Club,LEICHARDT
Organized Sports,Lawn Bowls,144.18403996,-35.92265197,St Arnaud Bowling Club,LEITCHVILLE
Organized Sports,Lawn Bowls,146.78530809,-36.19517059,St Arnaud Country Club,LENEVA
Organized Sports,Lawn Bowls,145.97637497,-38.45350402,Stawell Bowling Club,LEONGATHA
Organized Sports,Lawn Bowls,145.88323701,-38.48101501,Stawell Golf & Bowling Club,LEONGATHA SOUTH
Organized Sports,Lawn Bowls,144.4231969,-37.61363379,Albert Park Bowls Club,LERDERDERG
Organized Sports,Lawn Bowls,144.04284204,-37.93846698,Middle Park Bowling Club,LETHBRIDGE
Organized Sports,Lawn Bowls,146.49455899,-37.55572997,Port Melbourne Bowls Club,LICOLA
Organized Sports,Lawn Bowls,145.97884703,-38.13175299,St Kilda Bowls Club,LILLICO
Organized Sports,Lawn Bowls,141.07106901,-36.27207902,Avoca Bowling Club,LILLIMUR
Organized Sports,Lawn Bowls,145.340909,-37.72647197,Landsborough & District Bowling Club,LILYDALE
Organized Sports,Lawn Bowls,145.97640796,-36.76459899,Waubra Bowling Club,LIMA EAST
Organized Sports,Lawn Bowls,145.63687001,-37.34492701,Dookie Bowls Club,LIMESTONE
Organized Sports,Lawn Bowls,147.36663298,-37.80932199,East Shepparton Bowls club,LINDENOW SOUTH
Organized Sports,Lawn Bowls,140.96256939,-34.20277669,Hill Top Golf & Country Club Tatura,LINDSAY POINT
Organized Sports,Lawn Bowls,143.5930332,-37.64854387,Katandra West Bowls Club,LINTON
Organized Sports,Lawn Bowls,143.42709198,-37.92545101,Merrigum Bowls Club,LISMORE
Organized Sports,Lawn Bowls,142.00389906,-36.56745197,Mooroopna Bowls Club,LITTLE DESERT
Organized Sports,Lawn Bowls,144.60014703,-37.94527203,Mooroopna Golf Club,LITTLE RIVER
Organized Sports,Lawn Bowls,147.04121401,-37.88299202,Murchison Bowls Club,LLOWALONG
Organized Sports,Lawn Bowls,147.65209871,-37.98302354,Shepparton Golf Club,LOCH SPORT
Organized Sports,Lawn Bowls,144.57616597,-36.31568701,Shepparton Park Bowls Club,LOCKINGTON
Organized Sports,Lawn Bowls,144.20970656,-36.84548763,Tallygaroopna Recreation Reserve,LOCKWOOD
Organized Sports,Lawn Bowls,143.98707801,-36.02498797,Tatura Bowls Club,LODDON VALE
Organized Sports,Lawn Bowls,146.47244596,-36.34976902,Foster Bowls Club,LONDRIGAN
Organized Sports,Lawn Bowls,144.26482103,-36.73381596,Leongatha Bowls Club,LONG GULLY
Organized Sports,Lawn Bowls,147.29709333,-38.27806546,Loch Bowls Club,LONGFORD
Organized Sports,Lawn Bowls,145.74597036,-38.08919482,Mirboo North Bowls Club,LONGWARRY
Organized Sports,Lawn Bowls,145.37874404,-36.88069999,Port Welshpool Bowls Club,LONGWOOD
Organized Sports,Lawn Bowls,143.94609841,-38.57942908,Tarwin Lower Recreation Reserve,LORNE
Organized Sports,Lawn Bowls,144.34094699,-38.06220698,Terrill Park,LOVELY BANKS
Organized Sports,Lawn Bowls,142.01003197,-36.79440295,Toora Bowls Club,LOWER NORTON
Organized Sports,Lawn Bowls,146.61971897,-38.26656797,Balmoral Bowls Club,LOY YANG
Organized Sports,Lawn Bowls,143.78725996,-37.54232498,Branxholme Bowls Club,LUCAS
Organized Sports,Lawn Bowls,147.7022461,-36.24821659,Coleraine (Silvester Oval) Recreation Reserve,LUCYVALE
Organized Sports,Lawn Bowls,144.43202498,-36.90079503,Dunkeld Bowling Club,LYAL
Organized Sports,Lawn Bowls,145.19472814,-38.07214476,Grangeburn Bowls Club,LYNDHURST
Organized Sports,Lawn Bowls,144.29662101,-37.38175896,Hamilton Bowls Club,LYONVILLE
Organized Sports,Lawn Bowls,145.24387417,-37.94317813,Penshurst Reserve,LYSTERFIELD SOUTH
Organized Sports,Lawn Bowls,145.51915238,-37.85774517,Chadstone Bowling Club,MACCLESFIELD
Organized Sports,Lawn Bowls,146.55074822,-38.44015343,East Malvern RSL Bowling Club,MACKS CREEK
Organized Sports,Lawn Bowls,144.07432047,-35.94947237,Malvern Bowling Club,MACORNA
Organized Sports,Lawn Bowls,146.16147621,-37.19706868,Melbourne Bowling Club,MACS COVE
Organized Sports,Lawn Bowls,144.41282413,-37.72331268,Toorak Bowling Club,MADDINGLEY
Organized Sports,Lawn Bowls,146.93616202,-37.97525102,Avenel Bowling Club,MAFFRA
Organized Sports,Lawn Bowls,143.86353872,-37.61763298,Nagambie Bowling Club,MAGPIE
Organized Sports,Lawn Bowls,144.87188089,-37.77265272,Violet Town Bowling Club,MAIDSTONE
Organized Sports,Lawn Bowls,143.37877281,-37.37598607,Anglesea Bowls Club,MAIN LEAD
Organized Sports,Lawn Bowls,145.952685,-36.96694904,Lorne Bowls Club,MAINDAMPLE
Organized Sports,Lawn Bowls,145.83155699,-36.35276202,Torquay Bowls Club,MAJOR PLAINS
Organized Sports,Lawn Bowls,144.07132501,-37.04150297,Winchelsea Bowls Club,MALDON
Organized Sports,Lawn Bowls,144.434545,-37.14989503,Lake Boga Bowling Club,MALMSBURY
Organized Sports,Lawn Bowls,145.09182331,-37.87419785,Manangatang District Bowling Club,MALVERN EAST
Organized Sports,Lawn Bowls,143.10389391,-34.99853289,Nyah West Bowling club,MANANGATANG
Organized Sports,Lawn Bowls,144.26273001,-36.88165098,Swan Hill Bowls Club,MANDURANG SOUTH
Organized Sports,Lawn Bowls,144.33547402,-38.14537604,Swan Hill Racecourse Bowls Club,MANIFOLD HEIGHTS
Organized Sports,Lawn Bowls,143.58813743,-37.80215442,Corryong Tennis & Bowls Club,MANNIBADAR
Organized Sports,Lawn Bowls,144.60481397,-37.88632398,Mitta Valley Bowling Club,MANOR LAKES
Organized Sports,Lawn Bowls,145.95241664,-37.11106399,Tallangatta Bowls Club,MANSFIELD
Organized Sports,Lawn Bowls,144.57753595,-38.26685804,Milawa Recreation Reserve,MARCUS HILL
Organized Sports,Lawn Bowls,143.646075,-38.791381,Moyhu Bowling Club,MARENGO
Organized Sports,Lawn Bowls,145.53139301,-36.28041201,Wareena Park,MARIONVALE
Organized Sports,Lawn Bowls,142.78029796,-35.80121496,Warrnambool Bowls Club,MARLBED
Organized Sports,Lawn Bowls,142.93123083,-36.74663225,Warrnambool Lawn Tennis & Bowls Club,MARNOO
Organized Sports,Lawn Bowls,142.83144897,-36.63961199,Golden Beach Recreation Reserve,MARNOO WEST
Organized Sports,Lawn Bowls,142.89493475,-37.49262985,Heyfield Bowls Club,MAROONA
Organized Sports,Lawn Bowls,144.3627523,-38.18547553,Loch Sport Recreation Reserve,MARSHALL
Organized Sports,Lawn Bowls,145.50414281,-36.19924094,Maffra Bowls Club,MARUNGI
Organized Sports,Lawn Bowls,145.59909602,-38.04345098,Rosedale Bowling Club,MARYKNOLL
Organized Sports,Lawn Bowls,146.36826701,-38.20760296,Sale Golf Club,MARYVALE
Organized Sports,Lawn Bowls,146.12974923,-37.64807336,Stratford Bowls Club,MATLOCK
Organized Sports,Lawn Bowls,144.94312901,-38.365134,Wurruk Bowls Club,MCCRAE
Organized Sports,Lawn Bowls,142.19364799,-36.84099099,Yarram Memorial gardens,MCKENZIE CREEK
Organized Sports,Lawn Bowls,145.02476903,-37.91080998,Edenhope Bowling Club,MCKINNON
Organized Sports,Lawn Bowls,145.82758197,-37.569062,Goroke Bowling Club,MCMAHONS CREEK
Organized Sports,Lawn Bowls,144.11830697,-35.76427523,Serviceton Memorial Bowling Club,MEAD
Organized Sports,Lawn Bowls,144.92875601,-37.64071298,Bennettswood Bowling Club,MEADOW HEIGHTS
Organized Sports,Lawn Bowls,145.97636302,-38.57017,Blackburn Bowling Club,MEENIYAN
Organized Sports,Lawn Bowls,147.46547987,-38.01975125,Blackburn North Bowling Club,MEERLIEU
Organized Sports,Lawn Bowls,144.86757596,-37.671027,Box Hill RSL Bowls Club,MELBOURNE AIRPORT
Organized Sports,Lawn Bowls,144.54954088,-37.7152851,Heatherdale Reserve ,MELTON SOUTH
Organized Sports,Lawn Bowls,141.81076897,-37.52597097,Mitcham Bowling Club,MELVILLE FOREST
Organized Sports,Lawn Bowls,143.43032099,-37.56149329,Vermont South Bowling Club,MENA PARK
Organized Sports,Lawn Bowls,145.40330801,-37.938174,Epping RSL/ Bowling Club,MENZIES CREEK
Organized Sports,Lawn Bowls,142.69348797,-38.46953701,Lalor Reserve and Bowling club,MEPUNGA EAST
Organized Sports,Lawn Bowls,142.01750197,-34.187253,Whittlesea Bowls Club,MERBEIN
Organized Sports,Lawn Bowls,141.99704601,-34.14629603,Wodonga Bowling Club,MERBEIN WEST
Organized Sports,Lawn Bowls,141.42702703,-34.54039701,Hoppers Crossing Club,MERINGUR
Organized Sports,Lawn Bowls,145.06003997,-37.57282002,Werribee RSL Bowls Club,MERNDA
Organized Sports,Lawn Bowls,146.6258713,-36.62666377,Alphington Bowls Club,MERRIANG SOUTH
Organized Sports,Lawn Bowls,145.11465607,-38.39846282,Chirnside Park Country Club,MERRICKS BEACH
Organized Sports,Lawn Bowls,145.10367508,-36.34306688,Healsville Bowls Club,MERRIGUM
Organized Sports,Lawn Bowls,144.49444997,-37.68279998,Kiloran Park,MERRIMU
Organized Sports,Lawn Bowls,145.61922696,-36.96904098,Lilydale Bowls and Tennis Club,MERTON
Organized Sports,Lawn Bowls,144.47853497,-37.15516201,Monbulk Reserve,METCALFE EAST
Organized Sports,Lawn Bowls,144.56486298,-36.93680698,Warburton Recreation Reserve,MIA MIA
Organized Sports,Lawn Bowls,143.30049501,-37.40330002,Yarra Glen Bowls Club,MIDDLE CREEK
Organized Sports,Lawn Bowls,145.95706699,-38.62619302,Yarra Junction Recreation Reserve,MIDDLE TARWIN
Organized Sports,Lawn Bowls,141.72327769,-36.7650227,Brim Memorial Bowling Club,MIGA LAKE
Organized Sports,Lawn Bowls,142.20397043,-34.18368283,Hopetoun Bowls Club,MILDURA
Organized Sports,Lawn Bowls,144.0068251,-37.58955015,Minyip Bowls Club,MILLBROOK
Organized Sports,Lawn Bowls,144.34409372,-36.38521974,Murtoa Bowling Club,MILLOO
Organized Sports,Lawn Bowls,144.04246196,-35.76676599,Rupanyup Bowls Club,MILNES BRIDGE
Organized Sports,Lawn Bowls,144.18542623,-35.94660752,Warracknabeal Golf & Bowls Club,MINCHA WEST
Organized Sports,Lawn Bowls,143.37441508,-37.83366756,Woomelang Bowling Club,MINGAY
