category,type,lon,lat,name,suburb
Team Sports,Badminton,146.61886102,-36.09326496,Alexandra Hall,BARNAWARTHA
Team Sports,Badminton,146.70289541,-36.10908192,Ballarat Ken Kay Badminton Stadium,BARNAWARTHA NORTH
Team Sports,Badminton,146.1694813,-38.40408546,Macleod Recreation & Fitness Centre,BAROMI
Team Sports,Badminton,143.64180096,-38.45161999,Bass Coast Aquatic & Leisure Centre,BARONGAROOK
Team Sports,Badminton,143.58444601,-38.45644704,Drouin Recreation Reserve,BARONGAROOK WEST
Team Sports,Badminton,144.24881085,-38.19596714,EC Leeson Pavillion,BARRABOOL
Team Sports,Badminton,143.42740201,-36.28320996,Logan Park,BARRAKEE
Team Sports,Badminton,143.74278597,-38.62264499,Thorpdale Badminton Club,BARRAMUNGA
Team Sports,Badminton,143.75343297,-35.97248495,United Friendlies Society Reserve ,BARRAPORT
Team Sports,Badminton,143.58000803,-36.04533301,Eaglehawk Badminton & Table Tennis Centre,BARRAPORT WEST
Team Sports,Badminton,144.33340596,-37.46195798,Evolution Sports & Fitness Centre,BARRYS REEF
Team Sports,Badminton,143.8932596,-38.03453298,Charlton Indoor Sports Stadium,BARUNAH PARK
Team Sports,Badminton,143.75223535,-38.02358775,Bamawm Indoor Sports Complex,BARUNAH PLAINS
Team Sports,Badminton,146.73610396,-36.51439703,Campaspe Valley Community Centre,BARWIDGEE
Team Sports,Badminton,146.17279197,-36.963396,Fonterra Sports & Entertainment Centre,BARWITE
Team Sports,Badminton,143.74136374,-38.47918855,Kyabram Sports & Entertainment Centre,BARWON DOWNS
Team Sports,Badminton,144.46899773,-38.28686186,Tongala Leisure Centre,BARWON HEADS
Team Sports,Badminton,144.11948,-37.316738,Cardinia Life,BASALT
Team Sports,Badminton,145.48304564,-38.44380339,Berwick Leisure Centre,BASS
Team Sports,Badminton,144.32161198,-38.10618998,Endeavour Hills Leisure Centre,BATESFORD
Team Sports,Badminton,146.10147907,-36.01287199,Maryborough Sports and Leisure Centre,BATHUMI
Team Sports,Badminton,146.16046479,-37.7521219,Talbot Indoor Recreation Centre,BAW BAW
Team Sports,Badminton,146.25839531,-37.8463277,Camperdown Community Centre,BAW BAW VILLAGE
Team Sports,Badminton,145.10945698,-38.21392302,Terang and District Sport and Recreation Centre,BAXTER
Team Sports,Badminton,143.17601796,-37.28611803,Timboon Indoor Sports Centre,BAYINDEEN
Team Sports,Badminton,145.60014488,-38.18759945,Noble Park Community Centre,BAYLES
Team Sports,Badminton,144.7257082,-37.14388637,Springers Leisure Centre,BAYNTON
Team Sports,Badminton,144.73521765,-37.12651407,Darebin Community Sports Stadium,BAYNTON EAST
Team Sports,Badminton,145.24392096,-37.85222999,Frankston South Recreation Centre,BAYSWATER
Team Sports,Badminton,145.26398626,-37.82800601,Cohuna Education Community Activity Centre,BAYSWATER NORTH
Team Sports,Badminton,145.37948301,-38.02044803,Kerang Basketball Centre,BEACONSFIELD
Team Sports,Badminton,145.37912164,-37.97511135,Deakin YMCA Geelong,BEACONSFIELD UPPER
Team Sports,Badminton,143.62996603,-36.79004799,Leisuretime Centre,BEALIBA
Team Sports,Badminton,145.34993194,-35.91078702,Glen Eira Sports and Aquatic Centre,BEARII
Team Sports,Badminton,144.03216302,-36.31156501,Heywood Community Complex,BEARS LAGOON
Team Sports,Badminton,143.6047437,-35.543373,Bannockburn Community Sports Stadium,BEAUCHAMP
Team Sports,Badminton,143.38972498,-37.388179,Bannockburn Recreation Centre,BEAUFORT
Team Sports,Badminton,145.03593096,-37.97075596,HaddonÂ Recreation Centre,BEAUMARIS
Team Sports,Badminton,143.20312299,-36.67982003,Daylesford ARC Recreation Centre,BEAZLEYS BRIDGE
Team Sports,Badminton,143.74997888,-38.18423299,Dimboola Sports Stadium,BEEAC
Team Sports,Badminton,143.53664843,-38.61342671,Lowan Sports Centre,BEECH FOREST
Team Sports,Badminton,146.61986727,-36.33700092,Altona Badminton Centre,BEECHWORTH
Team Sports,Badminton,145.58906702,-37.89082103,Craigieburn Leisure Centre,BEENAK
Team Sports,Badminton,145.341717,-37.91850302,Rowville Community Centre,BELGRAVE
Team Sports,Badminton,145.330724,-37.92999997,Toongabbie Village Green (hall and oval),BELGRAVE HEIGHTS
Team Sports,Badminton,145.38521355,-37.93403601,Traralgon South Recreation Reserve,BELGRAVE SOUTH
Team Sports,Badminton,144.33340302,-38.11969903,Traralgon Sports Stadium,BELL PARK
Team Sports,Badminton,144.30844898,-38.07684998,Boort Community Centre,BELL POST HILL
Team Sports,Badminton,144.59681803,-38.146497,Macedon Community Centre,BELLARINE
Team Sports,Badminton,148.82669729,-37.66798859,Doncaster Badminton Centre,BELLBIRD CREEK
Team Sports,Badminton,144.18494428,-38.33863449,Manningham Donvale Indoor Sports Centre,BELLBRAE
Team Sports,Badminton,147.05888992,-36.08979486,Mansfield Sporting Complex,BELLBRIDGE
Team Sports,Badminton,142.66727197,-37.15742918,Footscray Nicholson Recreation Centre (Vic Uni),BELLELLEN
Team Sports,Badminton,145.03327169,-37.74888857,Footscray Park Aquatic and Fitness Centre (Vic Uni),BELLFIELD
Team Sports,Badminton,144.27915699,-38.35785299,Whitten Oval,BELLS BEACH
Team Sports,Badminton,144.36430396,-38.18597198,Caroline Springs Leisure Centre,BELMONT
Team Sports,Badminton,148.82816672,-37.78516991,Irymple Community Leisure Centre,BEMM RIVER
Team Sports,Badminton,145.70146906,-38.43394997,Pyalong Recreation Hall,BENA
Team Sports,Badminton,145.89961597,-36.55501504,RB Robson Stadium,BENALLA
Team Sports,Badminton,147.86241289,-37.03264301,Wandong Memorial Stadium,BENAMBRA
Team Sports,Badminton,140.96900715,-36.79303412,Cobram Sports Stadium,BENAYEO
Team Sports,Badminton,145.26735401,-37.70369092,Nathalia Sports & Community Centre & Skate Park,BEND OF ISLANDS
Team Sports,Badminton,144.28906898,-36.76936696,Oakleigh Recreation Centre,BENDIGO
Team Sports,Badminton,149.04652987,-37.29891938,Doutta Galla Ladies Badminton Club (Doutta Galla Youth Hall),BENDOC
Team Sports,Badminton,147.48055704,-37.91900401,Essendon Christ Church Badminton Club,BENGWORDEN
Team Sports,Badminton,143.87694341,-35.48629099,Bacchus Marsh Leisure Centre,BENJEROOP
Team Sports,Badminton,144.70393213,-37.21298403,David Collins Leisure Centre,BENLOCH
Team Sports,Badminton,146.27462203,-38.65840698,Sommerville Recreation & Community Centre,BENNISON
Team Sports,Badminton,145.03440114,-37.93302807,Wesley Hill Stadium,BENTLEIGH
Team Sports,Badminton,145.0742074,-37.908145,Diamond Valley Sports and Fitness Centre,BENTLEIGH EAST
Team Sports,Badminton,143.85528443,-38.52396071,Eltham Leisure Centre,BENWERRIN
Team Sports,Badminton,144.19037006,-37.77796646,Stawell Leisure Complex,BEREMBOKE
Team Sports,Badminton,143.4556892,-36.53321228,Melbourne Sports & Aquatic Centre,BERRIMAL
Team Sports,Badminton,143.72554097,-37.782336,Shepparton Sports Stadium,BERRINGA
Team Sports,Badminton,147.59661213,-36.23103757,Tatura Sports Stadium,BERRINGAMA
Team Sports,Badminton,142.91425,-35.70815597,South Gippsland Splash,BERRIWILLOCK
Team Sports,Badminton,143.43419199,-38.01904999,EUROA ECAS Centre,BERRYBANK
Team Sports,Badminton,146.08512999,-38.38656804,Strathbogie Memorial Hall,BERRYS CREEK
Team Sports,Badminton,145.319705,-38.04542604,Anderson Roadknight Reserve,BERWICK
Team Sports,Badminton,141.85098683,-38.16680103,Lorne Leisure Centre,BESSIEBELLE
Team Sports,Badminton,143.71929505,-36.92673799,Surf Coast Sport & Recreation Centre,BET BET
Team Sports,Badminton,148.41584551,-37.72086995,Robinvale Leisure Centre,BETE BOLONG
Team Sports,Badminton,148.34374145,-37.6239644,Swan Hill Indoor Sport and Recreation Centre,BETE BOLONG NORTH
Team Sports,Badminton,147.03658711,-36.13031453,Swan Hill Leisure centre,BETHANGA
Team Sports,Badminton,143.77891996,-36.90329398,Wangaratta Indoor Sports & Aquatic Centre,BETLEY
Team Sports,Badminton,142.60441425,-35.997833,Warrnambool Stadium,BEULAH
Team Sports,Badminton,143.48073698,-35.25515402,Gippsland Regional Sports Complex,BEVERFORD
Team Sports,Badminton,144.89684218,-37.4750014,Kaniva Sport Complex,BEVERIDGE
Team Sports,Badminton,141.12300202,-35.37256198,Deakin YMCA,BIG DESERT
Team Sports,Badminton,144.0189409,-38.4671566,Nunawading Community Centre,BIG HILL
Team Sports,Badminton,145.73784528,-37.7715274,Sportlink,BIG PATS CREEK
Team Sports,Badminton,148.08230071,-36.429101,Bundoora Netball and Sports Centre,BIGGARA
Team Sports,Badminton,146.69577771,-37.26768905,Werribee Sports & Fitness Centre,BILLABONG
Team Sports,Badminton,142.747742,-35.27667602,Kilsyth Sports Centre,BIMBOURIE
Team Sports,Badminton,147.76399421,-37.18177181,Warracknabeal Leisure Complex,BINDI
Team Sports,Croquet,142.73155594,-36.324902,Alexandra Croquet Club,BOOLITE
Team Sports,Croquet,144.0189409,-38.4671566,Ballarat Western Croquet Club,BOONAH
Team Sports,Croquet,146.36431896,-36.19715403,Ivanhoe Park,BOORHAMAN
Team Sports,Croquet,146.20508107,-36.12489899,Phillip Island Croquet Club,BOORHAMAN NORTH
Team Sports,Croquet,146.03344786,-38.4304323,Wonthaggi Recreation Reserve,BOOROOL
Team Sports,Croquet,145.81597598,-36.09916603,Drouin Croquet Club,BOOSEY
Team Sports,Croquet,142.603555,-37.54938398,Warragul Bowling Club & Croquet Club,BORNES HILL
Team Sports,Croquet,143.87659906,-36.29908976,Brighton Croquet Club,BORUNG
Team Sports,Croquet,145.28410005,-38.14028154,Sandringham Tennis/Croquet Club,BOTANIC RIDGE
Team Sports,Croquet,143.65341301,-36.99906504,Warleigh Croquet Club,BOWENVALE
Team Sports,Croquet,146.13125616,-36.2421916,Eaglehawk Croquet Club,BOWEYA NORTH
Team Sports,Croquet,146.37386598,-36.31638199,Golden Square Bowling and Croquet Club,BOWSER
Team Sports,Croquet,145.1187661,-37.79640808,Glenferrie Hill Bowls Club,BOX HILL NORTH
Team Sports,Croquet,145.77420129,-36.33882072,Charlton Croquet Club,BOXWOOD
Team Sports,Croquet,143.4422841,-37.79876427,Wycheproof Bowls Club,BRADVALE
Team Sports,Croquet,145.90202404,-38.099363,Kyabram Bowls Club,BRANDY CREEK
Team Sports,Croquet,145.92004396,-38.08852202,Maryborough VRI Croquet Club,BRAVINGTON
Team Sports,Croquet,141.83422686,-37.98456713,Colac Tennis Club,BREAKAWAY CREEK
Team Sports,Croquet,144.37177599,-38.29185802,Terang Cricket Oval,BREAMLEA
Team Sports,Croquet,143.56707197,-37.53814098,Dandenong Croquet & Bowls Club,BREWSTER
Team Sports,Croquet,145.11490596,-37.71170202,Rotary Park Bairnsdale,BRIAR HILL
Team Sports,Croquet,144.05049801,-36.60732198,Frankston Croquet Club,BRIDGEWATER
Team Sports,Croquet,143.92966309,-36.60443297,Alexandra Park,BRIDGEWATER ON LODDON
Team Sports,Croquet,145.00474441,-37.89581685,Drysdale bowls Clubs,BRIGHTON
Team Sports,Croquet,142.31055896,-36.10701204,Francis Street Reserve,BRIM
Team Sports,Croquet,146.29476172,-36.08754647,Caulfield Park,BRIMIN
Team Sports,Croquet,141.122684,-36.80001095,Elsternwick Croquet Club,BRINGALBERT
Team Sports,Croquet,145.05991467,-37.16856541,Casterton Croquet Club,BROADFORD
Team Sports,Croquet,144.90327899,-37.681026,Henty Park,BROADMEADOWS
Team Sports,Croquet,148.59988554,-37.76923143,Williamstown Croquet Club,BRODRIBB RIVER
Team Sports,Croquet,143.82037456,-36.87718698,Horsham City Bowls Club,BROMLEY
Team Sports,Croquet,144.85983268,-37.81384162,Horsham Lawn Tennis Club,BROOKLYN
Team Sports,Croquet,143.924759,-37.39891802,Beechworth Bowls/Croquet Club,BROOMFIELD
Team Sports,Croquet,143.908191,-37.56338098,Hubert Osborne Reserve,BROWN HILL
Team Sports,Croquet,146.92236608,-36.41625967,Morwell Recreation Reserve,BRUARONG
Team Sports,Croquet,148.24884562,-36.92343689,Boort Croquet Club,BRUMBY
Team Sports,Croquet,144.98684934,-37.77431889,Dixon Field,BRUNSWICK EAST
Team Sports,Croquet,147.91787804,-37.73187496,Kyneton Croquet Club,BRUTHEN
Team Sports,Croquet,148.00126967,-37.3000312,Jubilee Park,BUCHAN
Team Sports,Croquet,146.98998099,-36.9566818,Ringwood Croquet Club,BUCKLAND
Team Sports,Croquet,142.06010797,-37.83596998,Kenny Park Recreation Reserve,BUCKLEY SWAMP
Team Sports,Croquet,147.11880366,-37.57942123,Mansell Reserve,BUDGEE BUDGEE
Team Sports,Croquet,143.63678804,-35.75189204,Quandong Park,BUDGERUM EAST
Team Sports,Croquet,146.61663901,-36.65078311,Cobram Lawn Tennis Club,BUFFALO RIVER
Team Sports,Croquet,149.04652987,-37.29891938,Electra Reserve,BULDAH
Team Sports,Croquet,142.93163503,-37.08638003,Essendon Cricket Ground,BULGANA
Team Sports,Croquet,143.15379102,-38.34352998,Brunswick Malletsports Club,BULLAHARRE
Team Sports,Croquet,144.23746005,-37.411275,Civic Reserve,BULLARTO
Team Sports,Croquet,145.09965442,-37.78261152,Castlemaine Bowling Club,BULLEEN
Team Sports,Croquet,147.42159432,-36.24059088,Maldon Croquet Club,BULLIOH
Team Sports,Croquet,145.94712801,-38.11463304,Newstead Bowling Club,BULN BULN
Team Sports,Croquet,147.82093996,-37.78535099,Koroit Recreation Reserve,BUMBERRAH
Team Sports,Croquet,146.98181345,-38.03931003,Elwood Reserve,BUNDALAGUAH
Team Sports,Croquet,146.20508107,-36.12489899,Mooroopna Recreation Reserve,BUNDALONG SOUTH
Team Sports,Croquet,144.14411778,-37.52710775,Shepparton RSL Bowling Club,BUNDING
Team Sports,Croquet,143.56098891,-37.04247123,Korumburra Bowls/Tennis Club,BUNG BONG
Team Sports,Croquet,144.07207503,-37.67041803,Hamilton Croquet Club,BUNGAL
Team Sports,Croquet,144.03821196,-37.55045396,Euroa Bowling Club,BUNGAREE
Team Sports,Croquet,145.96570898,-36.35708897,Nagambie Croquet Club,BUNGEET WEST
Team Sports,Croquet,143.43600396,-36.10924596,Ken Harrison Reserve,BUNGULUKE
Team Sports,Croquet,143.78298697,-37.56668796,Wangaratta Croquet Club,BUNKERS HILL
Team Sports,Croquet,145.75544721,-38.06105183,Albert Park,BUNYIP NORTH
Team Sports,Croquet,144.31587798,-35.86272397,Maffra Croquet Club,BURKES BRIDGE
Team Sports,Croquet,143.63687355,-37.20787454,Stephenson Park,BURNBANK
Team Sports,Croquet,145.01687197,-37.82543302,Kaniva Bowling & Croquet Club,BURNLEY
Team Sports,Croquet,144.76239922,-37.73810923,Kelly Park,BURNSIDE HEIGHTS
Team Sports,Croquet,145.91343403,-36.06992997,Beulah Bowls Club,BURRAMINE
Team Sports,Croquet,147.58751184,-36.0970278,Warracknabeal Bowling Club,BURROWYE
Team Sports,Netball (Indoor),141.33074599,-36.641132,Llanberris Netball Centre,MINIMAY
Team Sports,Netball (Indoor),142.84627395,-37.58948204,Major League Indoor Sports Centre,MININERA
Team Sports,Netball (Indoor),142.39043602,-38.03353799,Wendouree Sports & Events Centre ,MINJAH
Team Sports,Netball (Indoor),143.77333503,-36.05194703,Bellbird Park Indoor Stadium,MINMINDIE
Team Sports,Netball (Indoor),142.73170373,-36.52858845,Bendigo Indoor Sports & Leisure Centre,MINYIP
Team Sports,Netball (Indoor),147.11118188,-37.42722561,Major League Indoor Sports,MIOWERA
Team Sports,Netball (Indoor),143.33053603,-35.11357102,Keilor Basketball Stadium,MIRALIE
Team Sports,Netball (Indoor),141.38090412,-36.34827099,Donald Sports Stadium,MIRAM
Team Sports,Netball (Indoor),146.18230199,-38.48669002,Cranbourne Indoor sports,MIRBOO
Team Sports,Netball (Indoor),146.13126802,-38.34651497,Olive Road Recreation Reserve,MIRBOO NORTH
Team Sports,Netball (Indoor),146.37050904,-37.10407697,Maryborough Netball,MIRIMBAH
Team Sports,Netball (Indoor),142.48178895,-37.39057544,Tullaroop Leisure Centre,MIRRANATWA
Team Sports,Netball (Indoor),145.18879478,-37.83089632,Colac Indoor Tennis & Sports Centre,MITCHAM
Team Sports,Netball (Indoor),143.82348703,-37.51756103,Cobden Indoor Sports Centre,MITCHELL PARK
Team Sports,Netball (Indoor),145.09365799,-36.84126002,Springvale Indoor Sports,MITCHELLSTOWN
Team Sports,Netball (Indoor),144.28164737,-36.26996303,Northcote Indoor Sports,MITIAMO
Team Sports,Netball (Indoor),141.85961776,-36.70198123,Frankston Indoor Sports ,MITRE
Team Sports,Netball (Indoor),147.30588192,-36.73234908,Jubilee Park,MITTA MITTA
Team Sports,Netball (Indoor),142.69714507,-35.11454532,Geelong Indoor Sports,MITTYACK
Team Sports,Netball (Indoor),142.23575999,-36.92597,Newtown Stadium,MOCKINYA
Team Sports,Netball (Indoor),145.71938998,-38.14073602,North Geelong Indoor Sports,MODELLA
Team Sports,Netball (Indoor),144.08967029,-38.28682825,Linton Recreation Reserve Stadium,MODEWARRE
Team Sports,Netball (Indoor),146.27422404,-38.19570343,Woady Yaloak Recreation Facility ,MOE
Team Sports,Netball (Indoor),146.27387068,-38.19644116,Altona Sports Centre,MOE SOUTH
Team Sports,Netball (Indoor),144.07440811,-38.46892633,Action Indoor Sports Tullamarine,MOGGS CREEK
Team Sports,Netball (Indoor),145.53165203,-36.61381901,Boardman Stadium,MOGLONEMBY
Team Sports,Netball (Indoor),142.65387697,-37.06405902,Sunbury Indoor Sports Centre,MOKEPILLY
Team Sports,Netball (Indoor),145.48170799,-37.116945,Moorabbin Indoor Tennis,MOLESWORTH
Team Sports,Netball (Indoor),143.63149937,-36.72968523,Eastern Indoor Sports Centre,MOLIAGUL
Team Sports,Netball (Indoor),145.431773,-36.73040799,Knox Basketball Stadium,MOLKA
Team Sports,Netball (Indoor),144.03710303,-37.49409504,Knox Indoor Sports,MOLLONGGHIP
Team Sports,Netball (Indoor),144.12166901,-36.132489,Knox Regional Netball Centre,MOLOGA
Team Sports,Netball (Indoor),146.08997996,-36.66441602,Buffalo Sports Stadium - Woodend,MOLYULLAH
Team Sports,Netball (Indoor),145.45705744,-37.85700272,Riddells Creek Leisure Centre,MONBULK
Team Sports,Netball (Indoor),144.73187059,-37.40324549,Romsey Recreation Centre,MONEGEETTA
Team Sports,Netball (Indoor),147.175095,-36.60998574,Doncaster Leeds Street Sports Centre,MONGANS BRIDGE
Team Sports,Netball (Indoor),146.89144027,-37.79896078,Park Orchards Community Centre,MONOMAK
Team Sports,Netball (Indoor),145.55422539,-38.19230449,Templestowe Heights Primary School,MONOMEITH
Team Sports,Netball (Indoor),145.10272667,-37.81052113,Action Indoor Sports,MONT ALBERT
Team Sports,Netball (Indoor),145.10855363,-37.7928361,Action Indoor Sports Ringwood,MONT ALBERT NORTH
Team Sports,Netball (Indoor),147.07158999,-38.06273704,Maroondah Indoor Sports Centre,MONTGOMERY
Team Sports,Netball (Indoor),145.11089642,-37.72033222,Lifestyle Plus Indoor Sports Centre,MONTMORENCY
Team Sports,Netball (Indoor),145.33907599,-37.80141103,Broadford Leisure Centre,MONTROSE
Team Sports,Netball (Indoor),144.41888097,-38.22019924,Oakleigh Indoor Sports,MOOLAP
Team Sports,Netball (Indoor),143.12054802,-36.61412801,Waverley Park/ Netball Centre,MOOLERR
Team Sports,Netball (Indoor),143.97632843,-37.03331009,Brunswick Sports Stadium,MOOLORT
Team Sports,Netball (Indoor),143.24924412,-37.0103585,Mornington Indoor Sports,MOONAMBEL
Team Sports,Netball (Indoor),146.42387729,-38.11215168,Castlemaine Indoor Sports,MOONDARRA
Team Sports,Netball (Indoor),144.90156879,-37.76541017,Kinglake Indoor Sports Stadium,MOONEE PONDS
Team Sports,Netball (Indoor),144.24817002,-37.04471997,Yea High School,MOONLIGHT FLAT
Team Sports,Netball (Indoor),144.93192497,-36.57606301,Community Bank Stadium,MOORA
Team Sports,Netball (Indoor),145.07735001,-37.94984,Albert Park Indoor Sports Centre,MOORABBIN
Team Sports,Netball (Indoor),145.09224705,-37.969884,Major League Indoor Sports Shepparton,MOORABBIN AIRPORT
Team Sports,Netball (Indoor),144.30748997,-38.08268301,Orrong Romanis Recreation Centre,MOORABOOL
Team Sports,Netball (Indoor),142.00779701,-37.39170197,Warrnambool Indoor Cricket & Netball,MOORALLA
Team Sports,Netball (Indoor),145.30115699,-36.58014803,Hoppers Indoor Sportz,MOORILIM
Team Sports,Netball (Indoor),144.78675918,-36.79979358,Riverside Indoor Sports,MOORMBOOL WEST
