category,type,lon,lat,name,suburb
Physical Activities for Stress Relief,Swimming,141.67973337,-38.26765321,Jubilee Park & Swimming Pool,NARRAWONG
Physical Activities for Stress Relief,Swimming,145.28856701,-38.02476001,Ararat Solar Olympic Swimming Pool,NARRE WARREN
Physical Activities for Stress Relief,Swimming,145.31924126,-37.96633406,Lake Bolac Swimming Pool,NARRE WARREN EAST
Physical Activities for Stress Relief,Swimming,145.28952696,-37.99974501,Willaura Swimming Pool,NARRE WARREN NORTH
Physical Activities for Stress Relief,Swimming,145.33534404,-38.07451103,Black Hill Swimming Pool,NARRE WARREN SOUTH
Physical Activities for Stress Relief,Swimming,143.25873037,-34.77865048,Brown Hill Swimming Pool,NARRUNG
Physical Activities for Stress Relief,Swimming,145.10788402,-36.09979997,Buninyong Swimming Pool,NATHALIA
Physical Activities for Stress Relief,Swimming,141.85690697,-36.77837203,Eureka Swimming Complex,NATIMUK
Physical Activities for Stress Relief,Swimming,143.460309,-36.87840503,Midlands Aquatic Play Space,NATTE YALLOCK
Physical Activities for Stress Relief,Swimming,143.03441399,-34.93807904,Sebastopol Aquatic Play Space,NATYA
Physical Activities for Stress Relief,Swimming,143.17325203,-36.95144502,Swim & Survival Academy,NAVARRE
Physical Activities for Stress Relief,Swimming,143.90966578,-37.62164919,UniSports Swimming Pool,NAVIGATORS
Physical Activities for Stress Relief,Swimming,145.95390009,-37.90404761,Wendouree Swimming Pool,NAYOOK
Physical Activities for Stress Relief,Swimming,141.59429957,-34.19100717,Cowes Outdoor Pool,NEDS CORNER
Physical Activities for Stress Relief,Swimming,144.00638998,-36.92880596,Neerim South Swimming pool,NEEREMAN
Physical Activities for Stress Relief,Swimming,145.99620226,-37.94201076,Rawson Indoor Swimming pool,NEERIM
Physical Activities for Stress Relief,Swimming,146.11876723,-38.02910128,Trafalgar Swimming Pool,NEERIM EAST
Physical Activities for Stress Relief,Swimming,145.95390009,-37.90404761,Bendigo Aquatic Centre,NEERIM JUNCTION
Physical Activities for Stress Relief,Swimming,145.99072733,-37.93926626,Bendigo East Swimming Pool,NEERIM NORTH
Physical Activities for Stress Relief,Swimming,145.94158305,-38.05047809,Elmore Swimming Pool,NEERIM SOUTH
Physical Activities for Stress Relief,Swimming,144.31179896,-36.49370304,Golden Square Swimming Pool,NEILBOROUGH
Physical Activities for Stress Relief,Swimming,147.28888709,-36.74029811,Goornong Swimming Pool,NELSE
Physical Activities for Stress Relief,Swimming,141.24298254,-38.06625481,Heathcote Swimming Pool,NELSON
Physical Activities for Stress Relief,Swimming,145.95678387,-38.51426515,Kangaroo Flat Swimming Pool,NERRENA
Physical Activities for Stress Relief,Swimming,142.95303799,-37.70902401,Long Gully Swimming Pool,NERRIN NERRIN
Physical Activities for Stress Relief,Swimming,143.88210004,-37.55243399,Marong Swimming Pool,NERRINA
Physical Activities for Stress Relief,Swimming,143.48076201,-37.50601704,Raywood Swimming Pool,NERRING
Physical Activities for Stress Relief,Swimming,141.77944604,-35.99771597,White Hills Swimming Pool,NETHERBY
Physical Activities for Stress Relief,Swimming,141.15026983,-36.62264906,Deer Park Regional Community Sports Complex,NEUARPURR
Physical Activities for Stress Relief,Swimming,144.60810599,-37.42249202,Flippers Swimming School,NEW GISBORNE
Physical Activities for Stress Relief,Swimming,146.31047503,-38.20070397,Berriwillock Swimming Pool,NEWBOROUGH
Physical Activities for Stress Relief,Swimming,143.94021997,-36.78561904,Birchip Swimming Pool,NEWBRIDGE
Physical Activities for Stress Relief,Swimming,144.26869859,-37.42759117,Charlton Pool,NEWBURY
Physical Activities for Stress Relief,Swimming,144.38408998,-38.17092498,Donald Swimming Pool,NEWCOMB
Physical Activities for Stress Relief,Swimming,142.998461,-38.54115296,Sea Lake Swimming Pool,NEWFIELD
Physical Activities for Stress Relief,Swimming,144.56342697,-37.30638104,Watchem Swimming Pool,NEWHAM
Physical Activities for Stress Relief,Swimming,145.32174449,-38.52897652,Wycheproof Swimming Pool,NEWHAVEN
Physical Activities for Stress Relief,Swimming,143.83903296,-37.55976502,Colbinabbin Pool,NEWINGTON
Physical Activities for Stress Relief,Swimming,147.71327943,-37.92622978,Kyabram Pool,NEWLANDS ARM
Physical Activities for Stress Relief,Swimming,143.95000003,-37.43440281,Lockington Pool,NEWLYN
Physical Activities for Stress Relief,Swimming,144.01833185,-37.38239517,Rochester Pool,NEWLYN NORTH
Physical Activities for Stress Relief,Swimming,148.38453657,-37.77885482,Rushworth Pool,NEWMERELLA
Physical Activities for Stress Relief,Swimming,144.88897597,-37.85782403,Stanhope Pool,NEWPORT
Physical Activities for Stress Relief,Swimming,146.93633345,-37.93820351,Tongala Pool,NEWRY
Physical Activities for Stress Relief,Swimming,144.09984337,-37.097168,Doveton Pool in the Park,NEWSTEAD
Physical Activities for Stress Relief,Swimming,143.62879707,-37.70576324,Dunolly Swim Centre,NEWTOWN
Physical Activities for Stress Relief,Swimming,141.74393402,-36.15491399,Princes Park Precinct (Swimming Pool),NHILL
Physical Activities for Stress Relief,Swimming,142.24459086,-34.24039885,Talbot Swim Centre,NICHOLS POINT
Physical Activities for Stress Relief,Swimming,147.74635503,-37.85891197,Camperdown Swimming Pool,NICHOLSON
Physical Activities for Stress Relief,Swimming,144.89251701,-37.73739801,Cobden Swimming Pool,NIDDRIE
Physical Activities for Stress Relief,Swimming,145.97257025,-38.15439718,Lismore Swimming Pool,NILMA
Physical Activities for Stress Relief,Swimming,145.97257025,-38.15439718,Skipton Swimming Pool,NILMA NORTH
Physical Activities for Stress Relief,Swimming,142.79396219,-35.47555725,Timboon Swimming Pool,NINDA
Physical Activities for Stress Relief,Swimming,143.41081897,-36.44007903,The Grenda Aquatic Centre (Haileybury College Pool),NINE MILE
Physical Activities for Stress Relief,Swimming,143.72966699,-37.60526901,Mallacoota Swimming Pool,NINTINGBOOL
Physical Activities for Stress Relief,Swimming,143.36825797,-35.99205107,Frankston Regional Aquatic Health & Wellbeing Centre,NINYEUNOOK
Physical Activities for Stress Relief,Swimming,142.80720677,-38.51082324,Pines Forest,NIRRANDA
Physical Activities for Stress Relief,Swimming,142.82936797,-38.49378996,Cohuna Swimming Pool,NIRRANDA EAST
Physical Activities for Stress Relief,Swimming,142.80720677,-38.51082324,Kerang Swimming Pool,NIRRANDA SOUTH
Physical Activities for Stress Relief,Swimming,145.158586,-37.98117502,Koondrook Swimming Pool,NOBLE PARK
Physical Activities for Stress Relief,Swimming,145.175881,-37.95041903,Leitchville War Memorial Swimming Pool,NOBLE PARK NORTH
Physical Activities for Stress Relief,Swimming,145.89744253,-37.88383911,Patchell Plaza Warm Water Pool,NOOJEE
Physical Activities for Stress Relief,Swimming,142.84446547,-38.19682496,Quambatook Swimming Pool,NOORAT
Physical Activities for Stress Relief,Swimming,142.98568602,-38.19249699,Kardinia Aquatic Centre,NOORAT EAST
Physical Activities for Stress Relief,Swimming,149.34089041,-37.49451433,Lara Swimming Pool,NOORINBEE
Physical Activities for Stress Relief,Swimming,149.36673515,-37.48868336,Carnegie Swim Centre,NOORINBEE NORTH
Physical Activities for Stress Relief,Swimming,142.00138497,-36.85122598,Heywood Swimming pool,NORADJUHA
Physical Activities for Stress Relief,Swimming,144.33719304,-38.081548,Merino Swimming pool,NORLANE
Physical Activities for Stress Relief,Swimming,143.69049804,-35.83577302,Calembeen Park Dive Tower,NORMANVILLE
Physical Activities for Stress Relief,Swimming,146.405015,-36.08415598,Clunes Pool,NORONG
Physical Activities for Stress Relief,Swimming,144.29322705,-36.74290699,Daylesford Swimming Pool,NORTH BENDIGO
Physical Activities for Stress Relief,Swimming,144.37927806,-37.4387886,Trentham Pool,NORTH BLACKWOOD
Physical Activities for Stress Relief,Swimming,144.33340302,-38.11969903,Dimboola Swimming Pool,NORTH GEELONG
Physical Activities for Stress Relief,Swimming,144.95599396,-37.80587897,Jeparit Swimming Pool,NORTH MELBOURNE
Physical Activities for Stress Relief,Swimming,144.35864799,-38.10592803,Nhill Swimming Pool,NORTH SHORE
Physical Activities for Stress Relief,Swimming,146.40700301,-36.33133397,Rainbow Swimming Pool,NORTH WANGARATTA
Physical Activities for Stress Relief,Swimming,145.24196229,-37.73608416,Beechworth Swimming Pool & Skatepark,NORTH WARRANDYTE
Physical Activities for Stress Relief,Swimming,145.61285497,-38.59204704,Rutherglen Outdoor Pool,NORTH WONTHAGGI
Physical Activities for Stress Relief,Swimming,145.00420709,-37.78437371,Yackandandah Swimming pool,NORTHCOTE
Physical Activities for Stress Relief,Swimming,145.08128203,-36.99962599,Bayside Aquatics,NORTHWOOD
Physical Activities for Stress Relief,Swimming,142.83608099,-37.261726,Toby Haenen Swim Centre,NORVAL
Physical Activities for Stress Relief,Swimming,145.14293302,-37.90125504,Beaver Swim School Pty Ltd,NOTTING HILL
Physical Activities for Stress Relief,Swimming,148.15734395,-37.741923,Latrobe Leisure Morwell,NOWA NOWA
Physical Activities for Stress Relief,Swimming,143.26948003,-37.12012797,Moe Olympic Swimming Pool,NOWHERE CREEK
Physical Activities for Stress Relief,Swimming,143.227291,-35.38512299,Traralgon indoor sports and aquatic centre,NOWIE
Physical Activities for Stress Relief,Swimming,146.70556554,-36.62115527,Yallourn North Swimming Pool,NUG NUG
Physical Activities for Stress Relief,Swimming,144.04879402,-36.97938004,Boort Swimming Pool,NUGGETTY
Physical Activities for Stress Relief,Swimming,144.71180743,-37.17644064,Inglewood Swimming Pool,NULLA VALE
Physical Activities for Stress Relief,Swimming,142.85148512,-38.45915414,Mitiamo Swimming Pool,NULLAWARRE
Physical Activities for Stress Relief,Swimming,142.83704201,-38.427786,Pyramid Hills Swimming Pool,NULLAWARRE NORTH
Physical Activities for Stress Relief,Swimming,143.18440301,-35.81752699,Wedderburn Swimming Pool,NULLAWIL
Physical Activities for Stress Relief,Swimming,145.36290499,-36.14851898,Gisborne Aquatic Centre,NUMURKAH
Physical Activities for Stress Relief,Swimming,145.18736536,-37.80262761,Gisborne South Swimming Centre,NUNAWADING
Physical Activities for Stress Relief,Swimming,147.91152799,-37.81676704,Lancefield Memorial Swimming Pool,NUNGURNER
Physical Activities for Stress Relief,Swimming,147.88334302,-37.18694996,Woodend Swimming Pool,NUNNIONG
Physical Activities for Stress Relief,Swimming,141.59083039,-36.54310234,Westerfolds Sports Centre,NURCOUNG
Physical Activities for Stress Relief,Swimming,142.10938601,-36.98708801,Croydon Memorial Pool,NURRABIEL
Physical Activities for Stress Relief,Swimming,148.668767,-37.39571245,Ringwood Aquatic Centre,NURRAN
Physical Activities for Stress Relief,Swimming,145.18693629,-37.58173164,State Swim Caroline Springs,NUTFIELD
Physical Activities for Stress Relief,Swimming,143.38749293,-35.18227508,Swimmers Learn to Swim,NYAH
Physical Activities for Stress Relief,Swimming,143.30866399,-35.18560402,YMCA Kororoit Creek,NYAH WEST
Physical Activities for Stress Relief,Swimming,142.73994102,-35.39215103,Colignan Swimming Pool,NYARRIN
Physical Activities for Stress Relief,Swimming,147.94068697,-37.86744004,Irymple Swimming Pool,NYERIMILANG
Physical Activities for Stress Relief,Swimming,145.61840673,-38.33479829,Merbein Swimming Pool,NYORA
Physical Activities for Stress Relief,Swimming,143.30871402,-35.25746904,Murrayville Swimming Pool,NYRRABY
Physical Activities for Stress Relief,Swimming,144.91947318,-37.72504424,Ouyen Swimming Pool,OAK PARK
Physical Activities for Stress Relief,Swimming,144.83636301,-37.62960499,Red Cliffs Swimming Pool,OAKLANDS JUNCTION
Physical Activities for Stress Relief,Swimming,145.10339402,-37.91159502,Underbool Swimming Pool,OAKLEIGH
Physical Activities for Stress Relief,Swimming,145.11256797,-37.91267896,Broadford Outdoor Pool,OAKLEIGH EAST
Physical Activities for Stress Relief,Swimming,145.08530643,-37.90951477,Hidden Valley Golf & Country Club,OAKLEIGH SOUTH
Physical Activities for Stress Relief,Swimming,143.56149003,-35.96980593,Seymour War Memorial Pool,OAKVALE
Physical Activities for Stress Relief,Swimming,147.58062529,-38.07780977,Tallarook Outdoor Pool,OCEAN GRANGE
Physical Activities for Stress Relief,Swimming,144.49660439,-38.28260904,Cobram Outdoor Pool,OCEAN GROVE
Physical Activities for Stress Relief,Swimming,145.37595916,-38.06426891,Nathalia Swimming Pool,OFFICER
Physical Activities for Stress Relief,Swimming,145.45301298,-38.12375701,Numurkah Swimming Pool,OFFICER SOUTH
Physical Activities for Stress Relief,Swimming,147.25714969,-36.19037046,Strathmerton Outdoor Pool,OLD TALLANGATTA
Physical Activities for Stress Relief,Swimming,145.37039601,-37.87632096,Yarrawonga Swimming Pool,OLINDA
Physical Activities for Stress Relief,Swimming,143.73316006,-38.25948687,Paul Saddler Swimland,OMBERSLEY
Physical Activities for Stress Relief,Swimming,147.67684519,-37.01548919,Queens Park Swimming Pool,OMEO
Physical Activities for Stress Relief,Swimming,147.63310204,-36.962689,Seymour's Pool,OMEO VALLEY
Physical Activities for Stress Relief,Swimming,143.58704483,-38.25110509,Bacchus Marsh Aquatic Centre,ONDIT
Physical Activities for Stress Relief,Swimming,148.42291107,-37.72179523,Ballan Outdoor Swimming Pool,ORBOST
Physical Activities for Stress Relief,Swimming,142.17412496,-38.16751498,Coburg Olympic Swimming Pool,ORFORD
Physical Activities for Stress Relief,Swimming,145.05340653,-37.90957049,Oak Park Aquatic Centre,ORMOND
Physical Activities for Stress Relief,Swimming,145.43175703,-36.42434403,Pascoe Vale Outdoor Pool,ORRVALE
Physical Activities for Stress Relief,Swimming,146.92099807,-36.33855806,Crib Point Pool,OSBORNES FLAT
Physical Activities for Stress Relief,Swimming,145.77679602,-38.56257096,Campbells Creek Swim/Learn/Survive,OUTTRIM
Physical Activities for Stress Relief,Swimming,142.29543296,-34.84101403,Castlemaine Outdoor Swimming Pool,OUYEN
Physical Activities for Stress Relief,Swimming,146.79716368,-36.57484898,Chewton Swimming Pool,OVENS
Physical Activities for Stress Relief,Swimming,146.36880504,-36.40165002,Harcourt Swimming Pool,OXLEY
Physical Activities for Stress Relief,Swimming,146.41907199,-36.39604498,Maldon Swimming Pool,OXLEY FLATS
Physical Activities for Stress Relief,Swimming,141.2569682,-36.80323505,Newstead and District Swimming Pool,OZENKADNOOK
Physical Activities for Stress Relief,Swimming,142.97700502,-38.57598397,Hawkesdale Swimming Pool,PAARATTE
Physical Activities for Stress Relief,Swimming,143.68705396,-36.808818,Mortlake Swimming Pool,PAINSWICK
Physical Activities for Stress Relief,Swimming,145.433144,-38.08326302,Alexandra Swimming Pool,PAKENHAM
Physical Activities for Stress Relief,Swimming,145.45086297,-38.134565,Eildon Swimming Pool,PAKENHAM SOUTH
Physical Activities for Stress Relief,Swimming,145.53577196,-38.03543401,Marysville Swimming Pool,PAKENHAM UPPER
Physical Activities for Stress Relief,Swimming,141.06952757,-35.38044863,Yea Swimming Pool,PANITYA
Physical Activities for Stress Relief,Swimming,142.76429392,-38.3834238,Diamond Creek Outdoor Heated Pool,PANMURE
Physical Activities for Stress Relief,Swimming,145.274649,-37.65652602,Halls Gap Swimming Pool,PANTON HILL
Physical Activities for Stress Relief,Swimming,143.03160396,-36.77359999,Marnoo Swimming Pool,PARADISE
Physical Activities for Stress Relief,Swimming,147.40623285,-38.19360754,St Arnaud Swimming Pool,PARADISE BEACH
Physical Activities for Stress Relief,Swimming,144.20018842,-38.25933063,Avoca Swimming Pool,PARAPARAP
Physical Activities for Stress Relief,Swimming,145.22115999,-37.79244514,Beaufort Swimming Pool,PARK ORCHARDS
Physical Activities for Stress Relief,Swimming,145.094263,-37.98478398,Merrigum Swimming Pool,PARKDALE
Physical Activities for Stress Relief,Swimming,144.96520695,-37.793148,Mooroopna War Memorial Swimming Pool,PARKVILLE
Physical Activities for Stress Relief,Swimming,144.46482314,-37.69197904,Murchison Swimming Pool,PARWAN
Physical Activities for Stress Relief,Swimming,141.58817301,-37.68456804,Tatura Swimming Complex,PASCHENDALE
Physical Activities for Stress Relief,Swimming,144.92911203,-37.71569796,Foster Golf Club/ Cricket Club / Pool,PASCOE VALE
Physical Activities for Stress Relief,Swimming,144.92695647,-37.75107305,Korumburra Pool,PASCOE VALE SOUTH
Physical Activities for Stress Relief,Swimming,144.53150058,-37.19905237,Mirboo North Swimming Pool,PASTORIA
Physical Activities for Stress Relief,Swimming,144.628063,-37.19154999,Poowong Outdoor Swimming Pool,PASTORIA EAST
Physical Activities for Stress Relief,Swimming,142.11986123,-35.26593543,Toora Swimming Pool,PATCHEWOLLOCK
Physical Activities for Stress Relief,Swimming,144.47249103,-36.09972299,Balmoral Swimming Pool,PATHO
Physical Activities for Stress Relief,Swimming,145.15625411,-38.06739529,Coleraine Swimming pool,PATTERSON LAKES
Physical Activities for Stress Relief,Swimming,141.36056002,-36.87626698,Dunkeld Swimming Pool,PATYAH
Physical Activities for Stress Relief,Swimming,147.73051296,-37.90161998,Glenthompson Swimming Pool,PAYNESVILLE
Physical Activities for Stress Relief,Swimming,145.25468938,-38.22368523,Hamilton Olympic Swimming Pool,PEARCEDALE
Physical Activities for Stress Relief,Swimming,146.98690088,-38.14385137,Harold Holt Swim Centre,PEARSONDALE
Physical Activities for Stress Relief,Swimming,146.13118403,-36.12843403,Prahran Aquatic Centre,PEECHELBA
Physical Activities for Stress Relief,Swimming,146.24016469,-36.13484016,Avenel Swimming Pool,PEECHELBA EAST
Physical Activities for Stress Relief,Swimming,145.93119099,-36.228406,Euroa Swimming Pool,PELLUEBLA
Physical Activities for Stress Relief,Swimming,143.93695399,-38.45834097,Nagambie Swimming Pool,PENNYROYAL
Physical Activities for Stress Relief,Swimming,142.36376996,-37.75453598,Violet Town Swimming Pool,PENSHURST
Physical Activities for Stress Relief,Swimming,143.81526081,-35.44698511,Lorne Swimming Pool,PENTAL ISLAND
Physical Activities for Stress Relief,Swimming,144.33363492,-37.63742603,Torquay Learn to Swim,PENTLAND HILLS
Physical Activities for Stress Relief,Swimming,143.35633498,-37.02990302,Winchelsea Swimming Pool,PERCYDALE
Physical Activities for Stress Relief,Swimming,141.25165213,-36.77553412,Manangatang Swimming Pool,PERONNE
Physical Activities for Stress Relief,Swimming,147.20015399,-37.95544799,Nyah Swimming Pool,PERRY BRIDGE
Physical Activities for Stress Relief,Swimming,142.94085874,-38.58636186,Swan Hill Outdoor Swimming Pool,PETERBOROUGH
Physical Activities for Stress Relief,Swimming,143.72582255,-38.72192775,Corryong Swimming Pool,PETTICOAT CREEK
Physical Activities for Stress Relief,Swimming,145.28399396,-37.49738473,Eskdale Swimming Pool & tennis,PHEASANT CREEK
Physical Activities for Stress Relief,Swimming,143.30865598,-35.11372104,Tallangatta Swimming Pool,PIANGIL
Physical Activities for Stress Relief,Swimming,145.03185597,-36.08258104,Yarrunga Outdoor Pool,PICOLA
Physical Activities for Stress Relief,Swimming,145.03205401,-35.94043599,Archie Graham Community Centre,PICOLA WEST
Physical Activities for Stress Relief,Swimming,145.92068671,-37.88856228,Rosedale Swimming Pool,PIEDMONT
Physical Activities for Stress Relief,Swimming,142.77824152,-35.27673938,Edenhope Swimming Pool,PIER MILAN
Physical Activities for Stress Relief,Swimming,141.76903201,-37.31604801,Goroke Swimming Pool,PIGEON PONDS
Physical Activities for Stress Relief,Swimming,143.66311943,-37.71725445,Kaniva Swimming Pool,PIGGOREET
Physical Activities for Stress Relief,Swimming,141.97792897,-36.65440948,Whittlesea Park,PIMPINIO
Physical Activities for Stress Relief,Swimming,144.33181704,-36.16746197,Wodonga Olympic Pool,PINE GROVE
Physical Activities for Stress Relief,Swimming,145.57757159,-36.4256494,Shawn's Swim School,PINE LODGE
Physical Activities for Stress Relief,Swimming,147.79016701,-35.96682885,Werribee Olympic Pool,PINE MOUNTAIN
Physical Activities for Stress Relief,Swimming,143.62836904,-35.79759,Belgrave Swimming Pool & Tennis Club,PINE VIEW
Physical Activities for Stress Relief,Swimming,145.54423965,-38.38114669,Lilydale Recreation Reserve,PIONEER BAY
Physical Activities for Stress Relief,Swimming,144.59733151,-37.25546507,Olinda Outdoor Pool,PIPERS CREEK
Physical Activities for Stress Relief,Swimming,143.36719001,-35.21418003,Queens Park,PIRA
Physical Activities for Stress Relief,Swimming,146.11800398,-37.229261,Beulah & District Community Swimming Pool,PIRIES
Physical Activities for Stress Relief,Swimming,143.410682,-38.38833599,Hopetoun Swimming Pool,PIRRON YALLOCK
Physical Activities for Stress Relief,Swimming,143.55845981,-37.82547444,Minyip Swimming Pool,PITFIELD
Physical Activities for Stress Relief,Swimming,143.45654818,-37.62063671,Murtoa Swimming Pool,PITTONG
Physical Activities for Stress Relief,Swimming,145.09453822,-37.6625348,Tempy Swimming Pool,PLENTY
Physical Activities for Stress Relief,Swimming,144.64371374,-37.65257961,Warracknabeal Memorial Swimming Pool,PLUMPTON
Physical Activities for Stress Relief,Swimming,144.73662199,-37.87276001,Woomelang Swimming Pool,POINT COOK
Physical Activities for Stress Relief,Table Tennis,144.61865153,-38.26652289,Ballarat Table Tennis Centre,POINT LONSDALE
Physical Activities for Stress Relief,Table Tennis,143.08849596,-35.30122299,Rochester Recreation Reserve,POLISBET
Physical Activities for Stress Relief,Table Tennis,143.48349895,-38.2666794,Exhibition Hall,POMBORNEIT EAST
Physical Activities for Stress Relief,Table Tennis,142.73820702,-37.17596401,Community Sports Centre,POMONAL
Physical Activities for Stress Relief,Table Tennis,141.18336004,-37.19063,Geelong Table Tennis ,POOLAIJELO
Physical Activities for Stress Relief,Table Tennis,145.8095115,-38.3752719,Fitzgerald Street Stadium,POOWONG
Physical Activities for Stress Relief,Table Tennis,145.80770969,-38.2696949,Victoria Park,POOWONG NORTH
Physical Activities for Stress Relief,Table Tennis,146.86911405,-36.67983061,Gisborne Secondary College,POREPUNKAH
Physical Activities for Stress Relief,Table Tennis,142.937378,-38.622696,Melton Table Tennis Association (Victoria University),PORT CAMPBELL
Physical Activities for Stress Relief,Table Tennis,146.28049732,-38.67729832,Yarrawonga Showgrounds Reserve/Victoria Park,PORT FRANKLIN
Physical Activities for Stress Relief,Table Tennis,146.44829721,-38.70896836,Coburg Table Tennis Club,PORT WELSHPOOL
Physical Activities for Stress Relief,Table Tennis,141.59878045,-38.32093506,Table Tennis Pavillion (Camp Reserve),PORTLAND
Physical Activities for Stress Relief,Table Tennis,141.46978353,-38.36564289,State Bank Pavillion,PORTLAND WEST
Physical Activities for Stress Relief,Table Tennis,145.80592161,-38.64446318,Beaufort Town Hall,POUND CREEK
